{
  "brand": "Infiniti",
  "total_results": 12,
  "dealers": [
    {
      "dealer_id": "NNA70260",
      "name": "RED NOLAND INFINITI",
      "address": "425 Motor World Parkway, Colorado Springs, CO 80905",
      "city": "Colorado Springs",
      "state": "CO",
      "zip": "80905",
      "distance": "91.6 mi away",
      "phone": "(719) 444-8881",
      "hours": "Vehicle Sales: Open Until 6:00pm",
      "website": "https://www.rednolandinfiniti.com",
      "contact_url": "https://www.infinitiusa.com/contact-infiniti-retailer.html?dealerId=NNA70260"
    },
    {
      "dealer_id": "NNA71505",
      "name": "MIKE WARD INFINITI",
      "address": "1800 Lucent Court, Highlands Ranch, CO 80129",
      "city": "Highlands Ranch",
      "state": "CO",
      "zip": "80129",
      "distance": "97.5 mi away",
      "phone": "(303) 350-4300",
      "hours": "Vehicle Sales: Open Until 7:00pm",
      "website": "https://www.mikewardinfiniti.com",
      "contact_url": "https://www.infinitiusa.com/contact-infiniti-retailer.html?dealerId=NNA71505"
    },
    {
      "dealer_id": "NNA73084",
      "name": "INFINITI OF DENVER",
      "address": "2990 South Havana Street, Aurora, CO 80014",
      "city": "Aurora",
      "state": "CO",
      "zip": "80014",
      "distance": "107.7 mi away",
      "phone": "(303) 671-6000",
      "hours": "Vehicle Sales: Open Until 7:00pm",
      "website": "https://www.infinitiofdenver.com",
      "contact_url": "https://www.infinitiusa.com/contact-infiniti-retailer.html?dealerId=NNA73084"
    },
    {
      "dealer_id": "NNA70558",
      "name": "RICKENBAUGH INFINITI",
      "address": "5900 Gateway Court, Dacono, CO 80514",
      "city": "Dacono",
      "state": "CO",
      "zip": "80514",
      "distance": "122.0 mi away",
      "phone": "(303) 243-5585",
      "hours": "Vehicle Sales: Open Until 7:00pm",
      "website": "https://www.rickenbaughinfiniti.com",
      "contact_url": "https://www.infinitiusa.com/contact-infiniti-retailer.html?dealerId=NNA70558"
    },
    {
      "dealer_id": "NNA71241",
      "name": "GARCIA INFINITI",
      "address": "1234 Renaissance Ne, Albuquerque, NM 87107",
      "city": "Albuquerque",
      "state": "NM",
      "zip": "87107",
      "distance": "253.3 mi away",
      "phone": "(505) 217-3000",
      "hours": "Vehicle Sales: Open Until 6:00pm",
      "website": "https://www.garciainfiniti.com",
      "contact_url": "https://www.infinitiusa.com/contact-infiniti-retailer.html?dealerId=NNA71241"
    },
    {
      "dealer_id": "NNA71085",
      "name": "TIM DAHLE INFINITI",
      "address": "4594 S State St, Murray, UT 84107",
      "city": "Murray",
      "state": "UT",
      "zip": "84107",
      "distance": "312.9 mi away",
      "phone": "(801) 269-6300",
      "hours": "Vehicle Sales: Open Until 8:00pm",
      "website": "https://www.timdahleinfiniti.com",
      "contact_url": "https://www.infinitiusa.com/contact-infiniti-retailer.html?dealerId=NNA71085"
    },
    {
      "dealer_id": "NNA70570",
      "name": "MCGAVOCK INFINITI OF LUBBOCK",
      "address": "6225 Spur 327, Lubbock, TX 79424",
      "city": "Lubbock",
      "state": "TX",
      "zip": "79424",
      "distance": "444.6 mi away",
      "phone": "(806) 701-4444",
      "hours": "Vehicle Sales: Open Until 7:00pm",
      "website": "https://www.infinitioflubbock.com",
      "contact_url": "https://www.infinitiusa.com/contact-infiniti-retailer.html?dealerId=NNA70570"
    },
    {
      "dealer_id": "NNA71482",
      "name": "INFINITI OF SCOTTSDALE",
      "address": "7601 E Frank Lloyd Wright, Scottsdale, AZ 85260",
      "city": "Scottsdale",
      "state": "AZ",
      "zip": "85260",
      "distance": "466.2 mi away",
      "phone": "(480) 676-4867",
      "hours": "Vehicle Sales: Open Until 8:00pm",
      "website": "https://www.infinitiofscottsdale.com",
      "contact_url": "https://www.infinitiusa.com/contact-infiniti-retailer.html?dealerId=NNA71482"
    },
    {
      "dealer_id": "NNA71526",
      "name": "COULTER INFINITI",
      "address": "6225 East Test Drive, Mesa, AZ 85206",
      "city": "Mesa",
      "state": "AZ",
      "zip": "85206",
      "distance": "472.2 mi away",
      "phone": "(480) 386-6375",
      "hours": "Vehicle Sales: Open Until 8:00pm",
      "website": "https://www.coulterinfiniti.com",
      "contact_url": "https://www.infinitiusa.com/contact-infiniti-retailer.html?dealerId=NNA71526"
    },
    {
      "dealer_id": "NNA72447",
      "name": "CHARLIE CLARK INFINITI OF EL PASO",
      "address": "6501 S Desert Blvd, El Paso, TX 79932",
      "city": "El Paso",
      "state": "TX",
      "zip": "79932",
      "distance": "477.7 mi away",
      "phone": "(915) 465-1800",
      "hours": "Vehicle Sales: Open Until 7:00pm",
      "website": "https://www.infinitiofelpaso.com",
      "contact_url": "https://www.infinitiusa.com/contact-infiniti-retailer.html?dealerId=NNA72447"
    },
    {
      "dealer_id": "NNA71082",
      "name": "INFINITI ON CAMELBACK",
      "address": "1250 E Camelback Rd, Phoenix, AZ 85014",
      "city": "Phoenix",
      "state": "AZ",
      "zip": "85014",
      "distance": "478.0 mi away",
      "phone": "(602) 680-2360",
      "hours": "Vehicle Sales: Open Until 7:30pm",
      "website": "https://www.infinitioncamelback.com",
      "contact_url": "https://www.infinitiusa.com/contact-infiniti-retailer.html?dealerId=NNA71082"
    },
    {
      "dealer_id": "NNA72083",
      "name": "INFINITI OF PEORIA",
      "address": "9167 W Bell Rd, Peoria, AZ 85382",
      "city": "Peoria",
      "state": "AZ",
      "zip": "85382",
      "distance": "478.5 mi away",
      "phone": "(623) 385-1382",
      "hours": "Vehicle Sales: Open Until 8:00pm",
      "website": "https://infinitiofpeoria.com",
      "contact_url": "https://www.infinitiusa.com/contact-infiniti-retailer.html?dealerId=NNA72083"
    }
  ]
}
