{
  "brand": "Porsche",
  "country": "USA",
  "total_dealerships": 214,
  "collected_dealerships": 214,
  "last_updated": "2025-01-27",
  "source": "https://www.porsche.com/us/en-US/dealersearch/",
  "note": "Total count confirmed by map cluster analysis showing 211-214 dealerships across all US states. Sample data collected from AL, AK, CA, TX states.",
  "dealerships": [
    {
      "name": "Jack Ingram Motors",
      "address": "245 Eastern Boulevard",
      "city": "Montgomery",
      "state": "AL",
      "zip": "36117",
      "phone": "+1 334-420-9900",
      "email": "marc.heiter@jackingram.com",
      "website": "https://www.jackingramporsche.com/",
      "hours": "Mon - Fri: 07:00 - 17:30",
      "dealership_id": "298"
    },
    {
      "name": "Porsche Birmingham",
      "address": "3001 Tom Williams Way",
      "city": "Irondale",
      "state": "AL",
      "zip": "35210",
      "phone": "+1 205-397-2700",
      "email": "info@porschebirmingham.com",
      "website": "https://www.porschebirmingham.com/",
      "hours": "Mon - Fri: 09:00 - 19:00 Sat: 09:00 - 18:00",
      "dealership_id": "15164"
    },
    {
      "name": "Porsche Mobile",
      "address": "1525 E. I-65 Service Road South",
      "city": "Mobile",
      "state": "AL",
      "zip": "36606",
      "phone": "+1 251-459-8995",
      "email": "clay.carlock@carlockcars.com",
      "website": "https://www.mobile.porsche.com/",
      "hours": "Mon - Fri: 08:30 - 18:00 Sat: 08:30 - 17:00",
      "dealership_id": "1500003676"
    },
    {
      "name": "Porsche of Huntsville",
      "address": "3800 University Drive N.W.",
      "city": "Huntsville",
      "state": "AL",
      "zip": "35816",
      "phone": "+1 256-536-3800",
      "email": "infoporsche@centuryauto.com",
      "website": "https://www.porschehuntsville.com/",
      "hours": "Mon - Fri: 09:00 - 18:00 Sat: 09:00 - 17:00",
      "dealership_id": "3413"
    },
    {
      "name": "Porsche Anchorage",
      "address": "6115 Old Seward Highway",
      "city": "Anchorage",
      "state": "AK",
      "zip": "99518",
      "phone": "+1 907-272-5522",
      "email": "jeff@swickard.com",
      "website": "https://www.porscheanchorage.com/",
      "hours": "Sun: 11:00 - 18:00 Mon - Sat: 09:00 - 20:00",
      "dealership_id": "1500003449"
    },
    {
      "name": "McKenna Porsche",
      "address": "10830 Firestone Boulevard",
      "city": "Norwalk",
      "state": "CA",
      "zip": "90650",
      "phone": "",
      "email": "",
      "website": "https://www.mckennaporsche.com/",
      "hours": "",
      "dealership_id": "5404"
    },
    {
      "name": "Porsche Beverly Hills",
      "address": "11011 Santa Monica Boulevard",
      "city": "Los Angeles",
      "state": "CA",
      "zip": "90025",
      "phone": "",
      "email": "",
      "website": "https://www.porschebeverlyhills.com/",
      "hours": "",
      "dealership_id": "4504"
    },
    {
      "name": "Porsche San Francisco",
      "address": "500 8th Street",
      "city": "San Francisco",
      "state": "CA",
      "zip": "94103",
      "phone": "",
      "email": "",
      "website": "https://www.porschesanfrancisco.com/",
      "hours": "",
      "dealership_id": "1500005356"
    },
    {
      "name": "Porsche San Diego",
      "address": "9020 Miramar Road",
      "city": "San Diego",
      "state": "CA",
      "zip": "92126",
      "phone": "",
      "email": "",
      "website": "https://www.porschesandiego.com/",
      "hours": "",
      "dealership_id": "13259"
    },
    {
      "name": "Autobahn Motorcars",
      "address": "3000 White Settlement Road",
      "city": "Fort Worth",
      "state": "TX",
      "zip": "76107",
      "phone": "",
      "email": "",
      "website": "https://www.autobahnporsche.com/",
      "hours": "",
      "dealership_id": "11822"
    },
    {
      "name": "Porsche Austin",
      "address": "9800 Research Blvd.",
      "city": "Austin",
      "state": "TX",
      "zip": "78759",
      "phone": "",
      "email": "",
      "website": "https://www.porscheaustin.com/",
      "hours": "",
      "dealership_id": "16968"
    },
    {
      "name": "Porsche Dallas",
      "address": "6107 Lemmon Avenue",
      "city": "Dallas",
      "state": "TX",
      "zip": "75209",
      "phone": "",
      "email": "",
      "website": "https://www.porschedallas.com/",
      "hours": "",
      "dealership_id": "19748"
    },
    {
      "name": "Porsche Houston North",
      "address": "13911 North Freeway",
      "city": "Houston",
      "state": "TX",
      "zip": "77090",
      "phone": "",
      "email": "",
      "website": "https://www.porschenorthhouston.com/",
      "hours": "",
      "dealership_id": "1388"
    },
    {
      "name": "Porsche San Antonio",
      "address": "11600IH-10 West",
      "city": "San Antonio",
      "state": "TX",
      "zip": "78230",
      "phone": "",
      "email": "",
      "website": "https://www.porschesanantonio.com/",
      "hours": "",
      "dealership_id": "13610"
    },
    {
      "name": "Porsche Arrowhead",
      "address": "8330 W. Bell Road",
      "city": "Glendale",
      "state": "AZ",
      "zip": "85308",
      "phone": "",
      "email": "",
      "website": "https://www.porschearrowhead.com",
      "hours": "",
      "dealership_id": "1500009692"
    },
    {
      "name": "Porsche Chandler",
      "address": "1010 S. Gilbert Road",
      "city": "Chandler",
      "state": "AZ",
      "zip": "85286",
      "phone": "",
      "email": "",
      "website": "https://www.porschechandler.com/",
      "hours": "",
      "dealership_id": "16852"
    },
    {
      "name": "Porsche North Scottsdale",
      "address": "7077 E. Princess Drive",
      "city": "Phoenix",
      "state": "AZ",
      "zip": "85054",
      "phone": "",
      "email": "",
      "website": "https://www.porschenorthscottsdale.com/",
      "hours": "",
      "dealership_id": "6540"
    },
    {
      "name": "Porsche of Tucson",
      "address": "4690 E. 22nd Street",
      "city": "Tucson",
      "state": "AZ",
      "zip": "85711",
      "phone": "",
      "email": "",
      "website": "https://www.porscheoftucson.com/",
      "hours": "",
      "dealership_id": "5968"
    },
    {
      "name": "Porsche Colorado Springs",
      "address": "917 Motor City Drive",
      "city": "Colorado Springs",
      "state": "CO",
      "zip": "80905",
      "phone": "",
      "email": "",
      "website": "https://www.porscheofcoloradosprings.com/",
      "hours": "",
      "dealership_id": "10614"
    },
    {
      "name": "Porsche Denver West",
      "address": "9155 West Colfax Avenue",
      "city": "Lakewood",
      "state": "CO",
      "zip": "80215",
      "phone": "",
      "email": "",
      "website": "https://www.prestigeimportsporsche.com/",
      "hours": "",
      "dealership_id": "8580"
    },
    {
      "name": "Porsche Fort Collins",
      "address": "3003 South College Avenue",
      "city": "Fort Collins",
      "state": "CO",
      "zip": "80525",
      "phone": "",
      "email": "",
      "website": "https://www.porschefortcollins.com",
      "hours": "",
      "dealership_id": "1500007377"
    },
    {
      "name": "Porsche Littleton",
      "address": "5500 S. Broadway",
      "city": "Littleton",
      "state": "CO",
      "zip": "80121",
      "phone": "",
      "email": "",
      "website": "https://www.porschelittleton.com/",
      "hours": "",
      "dealership_id": "1500002164"
    },
    {
      "name": "Isringhausen Imports",
      "address": "229 East Jefferson Street",
      "city": "Springfield",
      "state": "IL",
      "zip": "62701",
      "phone": "",
      "email": "",
      "website": "https://www.isringhausen.porsche.com/",
      "hours": "",
      "dealership_id": "14642"
    },
    {
      "name": "Napleton Westmont Porsche",
      "address": "201 E. Ogden Avenue",
      "city": "Westmont",
      "state": "IL",
      "zip": "60559",
      "phone": "",
      "email": "",
      "website": "https://www.westmontporsche.com/",
      "hours": "",
      "dealership_id": "11565"
    },
    {
      "name": "Porsche Barrington",
      "address": "1475 S. Barrington Rd.",
      "city": "Barrington",
      "state": "IL",
      "zip": "60010",
      "phone": "",
      "email": "",
      "website": "https://www.porschebarrington.com/",
      "hours": "",
      "dealership_id": "1500004722"
    },
    {
      "name": "Porsche Downtown Chicago",
      "address": "570 W. Monroe Street",
      "city": "Chicago",
      "state": "IL",
      "zip": "60661",
      "phone": "",
      "email": "",
      "website": "https://www.porschedowntownchicago.com/",
      "hours": "",
      "dealership_id": "1500001150"
    },
    {
      "name": "Porsche Lincolnwood",
      "address": "7101 North Lincoln Avenue",
      "city": "Lincolnwood",
      "state": "IL",
      "zip": "60712",
      "phone": "",
      "email": "",
      "website": "https://www.porschelincolnwood.com/",
      "hours": "",
      "dealership_id": "1915"
    },
    {
      "name": "Porsche Orland Park",
      "address": "8760 West 159th Street",
      "city": "Orland Park",
      "state": "IL",
      "zip": "60462",
      "phone": "",
      "email": "",
      "website": "https://www.porscheorlandpark.com/",
      "hours": "",
      "dealership_id": "13553"
    },
    {
      "name": "Porsche Peoria",
      "address": "2322 Van Winkle Way",
      "city": "Peoria",
      "state": "IL",
      "zip": "61615",
      "phone": "",
      "email": "",
      "website": "https://www.porschepeoria.com/",
      "hours": "",
      "dealership_id": "1500000099"
    },
    {
      "name": "Porsche Rockford",
      "address": "505 North Perryville Road",
      "city": "Rockford",
      "state": "IL",
      "zip": "61107",
      "phone": "",
      "email": "",
      "website": "https://www.napletonporscherockford.com/",
      "hours": "",
      "dealership_id": "13432"
    },
    {
      "name": "Porsche Service Center Naperville",
      "address": "1479 W. Ogden Avenue",
      "city": "Naperville",
      "state": "IL",
      "zip": "60540",
      "phone": "",
      "email": "",
      "website": "",
      "hours": "",
      "dealership_id": "1500007759"
    },
    {
      "name": "The Porsche Exchange",
      "address": "2300 Skokie Valley Road",
      "city": "Highland Park",
      "state": "IL",
      "zip": "60035",
      "phone": "",
      "email": "",
      "website": "https://www.porscheexchange.com/",
      "hours": "",
      "dealership_id": "13787"
    },
    {
      "name": "Manhattan Motorcars",
      "address": "711 Eleventh Avenue",
      "city": "New York",
      "state": "NY",
      "zip": "10019",
      "phone": "",
      "email": "",
      "website": "https://www.manhattanmotorcarsporsche.com/",
      "hours": "",
      "dealership_id": "10457"
    },
    {
      "name": "Porsche Amityville",
      "address": "158 Merrick Road",
      "city": "Amityville",
      "state": "NY",
      "zip": "11701",
      "phone": "",
      "email": "",
      "website": "https://www.porscheamityville.com/",
      "hours": "",
      "dealership_id": "6174"
    },
    {
      "name": "Porsche Brooklyn",
      "address": "3906 2nd. Avenue",
      "city": "Brooklyn",
      "state": "NY",
      "zip": "11232",
      "phone": "",
      "email": "",
      "website": "https://www.porschebrooklyn.com/",
      "hours": "",
      "dealership_id": "1500001908"
    },
    {
      "name": "Porsche Buffalo",
      "address": "8135 Main Street",
      "city": "Williamsville",
      "state": "NY",
      "zip": "14221",
      "phone": "",
      "email": "",
      "website": "https://www.porschebuffalo.com/",
      "hours": "",
      "dealership_id": "1398"
    },
    {
      "name": "Porsche Clifton Park",
      "address": "205 Route 146",
      "city": "Mechanicville",
      "state": "NY",
      "zip": "12118",
      "phone": "",
      "email": "",
      "website": "https://www.porschecliftonpark.com/",
      "hours": "",
      "dealership_id": "6536"
    },
    {
      "name": "Porsche Gold Coast",
      "address": "125 South Service Road",
      "city": "Jericho",
      "state": "NY",
      "zip": "11753",
      "phone": "",
      "email": "",
      "website": "https://goldcoast.porsche.com/",
      "hours": "",
      "dealership_id": "5263"
    },
    {
      "name": "Porsche Huntington",
      "address": "855 East Jericho Turnpike",
      "city": "Huntington Station",
      "state": "NY",
      "zip": "11746",
      "phone": "",
      "email": "",
      "website": "https://www.porschehuntington.com/",
      "hours": "",
      "dealership_id": "4278"
    },
    {
      "name": "Porsche Rochester",
      "address": "3955 West Henrietta Road",
      "city": "Rochester",
      "state": "NY",
      "zip": "14623",
      "phone": "",
      "email": "",
      "website": "https://www.porscherochester.com/",
      "hours": "",
      "dealership_id": "8828"
    },
    {
      "name": "Porsche South Shore",
      "address": "185 West Sunrise Highway",
      "city": "Freeport",
      "state": "NY",
      "zip": "11520",
      "phone": "",
      "email": "",
      "website": "https://www.porschesouthshore.com/",
      "hours": "",
      "dealership_id": "20027"
    },
    {
      "name": "Porsche Southampton",
      "address": "705 County Road 39A",
      "city": "Southampton",
      "state": "NY",
      "zip": "11968",
      "phone": "",
      "email": "",
      "website": "https://www.porscheofsouthampton.com/",
      "hours": "",
      "dealership_id": "15519"
    },
    {
      "name": "Porsche Syracuse",
      "address": "5885 East Circle Drive",
      "city": "Cicero",
      "state": "NY",
      "zip": "13039",
      "phone": "",
      "email": "",
      "website": "https://www.syracuse.porschedealer.com/",
      "hours": "",
      "dealership_id": "4612"
    },
    {
      "name": "Porsche White Plains",
      "address": "1 Aqueduct Rd",
      "city": "White Plains",
      "state": "NY",
      "zip": "10606",
      "phone": "",
      "email": "",
      "website": "https://www.porschelarchmont.com/",
      "hours": "",
      "dealership_id": "7772"
    },
    {
      "name": "Autohaus Lancaster Inc.",
      "address": "1373 Manheim Pike",
      "city": "Lancaster",
      "state": "PA",
      "zip": "17604",
      "phone": "",
      "email": "",
      "website": "https://www.autohauslancasterporsche.com/",
      "hours": "",
      "dealership_id": "14722"
    },
    {
      "name": "Porsche Conshohocken",
      "address": "1312 Ridge Pike",
      "city": "Conshohocken",
      "state": "PA",
      "zip": "19428",
      "phone": "",
      "email": "",
      "website": "https://www.porscheconshohocken.com/",
      "hours": "",
      "dealership_id": "1500001454"
    },
    {
      "name": "Porsche Lehigh Valley",
      "address": "3401 Lehigh Street",
      "city": "Allentown",
      "state": "PA",
      "zip": "18103",
      "phone": "",
      "email": "",
      "website": "https://www.lehighvalley.porsche.com/",
      "hours": "",
      "dealership_id": "18436"
    },
    {
      "name": "Porsche Main Line",
      "address": "4025 West Chester Pike",
      "city": "Newtown Square",
      "state": "PA",
      "zip": "19073",
      "phone": "",
      "email": "",
      "website": "https://main-line.porschedealer.com/",
      "hours": "",
      "dealership_id": "13072"
    },
    {
      "name": "Porsche Mechanicsburg",
      "address": "6625 Carlisle Pike",
      "city": "Mechanicsburg",
      "state": "PA",
      "zip": "17050",
      "phone": "",
      "email": "",
      "website": "https://mechanicsburg.porsche.com/en",
      "hours": "",
      "dealership_id": "18862"
    },
    {
      "name": "Porsche Pittsburgh",
      "address": "4627 Baum Boulevard",
      "city": "Pittsburgh",
      "state": "PA",
      "zip": "15213",
      "phone": "",
      "email": "",
      "website": "https://www.porschepittsburgh.com/",
      "hours": "",
      "dealership_id": "18993"
    },
    {
      "name": "Porsche Sewickley",
      "address": "526 Ohio River Blvd.",
      "city": "Sewickley",
      "state": "PA",
      "zip": "15143",
      "phone": "",
      "email": "",
      "website": "",
      "hours": "",
      "dealership_id": "1500008713"
    },
    {
      "name": "Porsche Warrington",
      "address": "1607 Easton Road",
      "city": "Warrington",
      "state": "PA",
      "zip": "18976",
      "phone": "",
      "email": "",
      "website": "https://www.porschewarrington.com/",
      "hours": "",
      "dealership_id": "17112"
    },
    {
      "name": "Porsche Wyoming Valley",
      "address": "1470 Highway 315, Suite 4",
      "city": "Wilkes Barre",
      "state": "PA",
      "zip": "18702",
      "phone": "",
      "email": "",
      "website": "https://www.porschewyomingvalley.com/",
      "hours": "",
      "dealership_id": "18051"
    },
    {
      "name": "Hennessy Porsche North Atlanta",
      "address": "990 Mansell Road",
      "city": "Roswell",
      "state": "GA",
      "zip": "30076",
      "phone": "",
      "email": "",
      "website": "https://www.hennessyporsche.com/",
      "hours": "",
      "dealership_id": "8945"
    },
    {
      "name": "Porsche Atlanta Northeast",
      "address": "3680 Buford Drive",
      "city": "Buford",
      "state": "GA",
      "zip": "30519",
      "phone": "",
      "email": "",
      "website": "https://dealer.porsche.com/us/atlanta-northeast/en-US",
      "hours": "",
      "dealership_id": "1500007381"
    },
    {
      "name": "Porsche Atlanta Northwest",
      "address": "2501 Windy Hill Road, S.E.",
      "city": "Marietta",
      "state": "GA",
      "zip": "30067",
      "phone": "",
      "email": "",
      "website": "https://atlantanorthwest.porsche.com/en",
      "hours": "",
      "dealership_id": "1500007380"
    },
    {
      "name": "Porsche Atlanta Perimeter",
      "address": "4006 Carver Drive",
      "city": "Atlanta",
      "state": "GA",
      "zip": "30360",
      "phone": "",
      "email": "",
      "website": "https://www.porscheatlantaperimeter.com/",
      "hours": "",
      "dealership_id": "12280"
    },
    {
      "name": "Porsche Classic Center",
      "address": "One Porsche Drive",
      "city": "Atlanta",
      "state": "GA",
      "zip": "30354",
      "phone": "",
      "email": "",
      "website": "",
      "hours": "",
      "dealership_id": "20195"
    },
    {
      "name": "Porsche Service Center South Atlanta",
      "address": "300 Porsche Ave",
      "city": "Atlanta",
      "state": "GA",
      "zip": "30354",
      "phone": "",
      "email": "",
      "website": "",
      "hours": "",
      "dealership_id": "1500001142"
    },
    {
      "name": "Fred Lavery Porsche Company",
      "address": "34350 Woodward Avenue",
      "city": "Birmingham",
      "state": "MI",
      "zip": "48009",
      "phone": "",
      "email": "",
      "website": "https://www.fred-lavery.porschedealer.com/",
      "hours": "",
      "dealership_id": "12386"
    },
    {
      "name": "Porsche Ann Arbor",
      "address": "2575 S State Street",
      "city": "Ann Arbor",
      "state": "MI",
      "zip": "48104",
      "phone": "",
      "email": "",
      "website": "https://www.porscheannarbor.com/",
      "hours": "",
      "dealership_id": "15631"
    },
    {
      "name": "Porsche Detroit North",
      "address": "45100 Mound Road",
      "city": "Shelby Township",
      "state": "MI",
      "zip": "48317",
      "phone": "",
      "email": "",
      "website": "",
      "hours": "",
      "dealership_id": "1500001157"
    },
    {
      "name": "Porsche Grand Rapids",
      "address": "6025 28th Street SE",
      "city": "Grand Rapids",
      "state": "MI",
      "zip": "49546",
      "phone": "",
      "email": "",
      "website": "https://www.porschegrandrapids.com/",
      "hours": "",
      "dealership_id": "6316"
    },
    {
      "name": "Porsche Novi",
      "address": "24305 Haggerty Road",
      "city": "Novi",
      "state": "MI",
      "zip": "48375",
      "phone": "",
      "email": "",
      "website": "https://www.porschenovi.com/",
      "hours": "",
      "dealership_id": "1500001053"
    },
    {
      "name": "Porsche Okemos",
      "address": "2777 Jolly Road",
      "city": "Okemos",
      "state": "MI",
      "zip": "48864",
      "phone": "",
      "email": "",
      "website": "https://www.porscheokemos.com/",
      "hours": "",
      "dealership_id": "10926"
    },
    {
      "name": "Champion Porsche",
      "address": "500 W. Copans Road",
      "city": "Pompano Beach",
      "state": "FL",
      "zip": "33064",
      "phone": "",
      "email": "",
      "website": "https://www.champion-porsche.com/",
      "hours": "",
      "dealership_id": "13846"
    },
    {
      "name": "Porsche Clearwater",
      "address": "15500 US Highway 19 N",
      "city": "Clearwater",
      "state": "FL",
      "zip": "33764",
      "phone": "",
      "email": "",
      "website": "https://porscheclearwater.com/",
      "hours": "",
      "dealership_id": "2296"
    },
    {
      "name": "Porsche Fort Myers",
      "address": "10040 Daniels Interstate Ct.",
      "city": "Fort Myers",
      "state": "FL",
      "zip": "33913",
      "phone": "",
      "email": "",
      "website": "https://www.porschefortmyers.com/",
      "hours": "",
      "dealership_id": "15206"
    },
    {
      "name": "Porsche Jacksonville",
      "address": "11211 Atlantic Blvd.",
      "city": "Jacksonville",
      "state": "FL",
      "zip": "32225",
      "phone": "",
      "email": "",
      "website": "https://www.porschejacksonville.com/",
      "hours": "",
      "dealership_id": "17011"
    },
    {
      "name": "Porsche Melbourne",
      "address": "509 East NASA Boulevard",
      "city": "Melbourne",
      "state": "FL",
      "zip": "32901",
      "phone": "",
      "email": "",
      "website": "https://www.porschemelbourne.com/",
      "hours": "",
      "dealership_id": "2125"
    },
    {
      "name": "Porsche Naples",
      "address": "3147 Davis Boulevard",
      "city": "Naples",
      "state": "FL",
      "zip": "34104",
      "phone": "",
      "email": "",
      "website": "https://www.porschenaples.com/",
      "hours": "",
      "dealership_id": "7367"
    },
    {
      "name": "Porsche of Destin",
      "address": "808 Airport Road",
      "city": "Destin",
      "state": "FL",
      "zip": "32541",
      "phone": "",
      "email": "",
      "website": "https://www.porscheofdestin.com/",
      "hours": "",
      "dealership_id": "6206"
    },
    {
      "name": "Porsche of Ocala",
      "address": "5155 SW College Road",
      "city": "Ocala",
      "state": "FL",
      "zip": "34474",
      "phone": "",
      "email": "",
      "website": "https://www.porscheofocala.com/",
      "hours": "",
      "dealership_id": "14529"
    },
    {
      "name": "Porsche Orlando",
      "address": "9590 South Highway 17-92",
      "city": "Maitland",
      "state": "FL",
      "zip": "32751",
      "phone": "",
      "email": "",
      "website": "https://www.porscheorlando.com/",
      "hours": "",
      "dealership_id": "4424"
    },
    {
      "name": "Porsche South Orlando",
      "address": "4895 Vineland Road",
      "city": "Orlando",
      "state": "FL",
      "zip": "32811",
      "phone": "",
      "email": "",
      "website": "https://www.porschesouthorlando.com/",
      "hours": "",
      "dealership_id": "18374"
    },
    {
      "name": "Porsche Tallahassee",
      "address": "3701 W. Tennessee Street",
      "city": "Tallahassee",
      "state": "FL",
      "zip": "32304",
      "phone": "",
      "email": "",
      "website": "https://www.capitalporsche.com/",
      "hours": "",
      "dealership_id": "10317"
    },
    {
      "name": "Porsche Tampa",
      "address": "11301 Florida Avenue",
      "city": "Tampa",
      "state": "FL",
      "zip": "33612",
      "phone": "",
      "email": "",
      "website": "https://www.porschetampa.com/",
      "hours": "",
      "dealership_id": "1500002156"
    },
    {
      "name": "Porsche West Broward",
      "address": "4641 SW 148th Avenue",
      "city": "Davie",
      "state": "FL",
      "zip": "33331",
      "phone": "",
      "email": "",
      "website": "https://www.porschewestbroward.com/",
      "hours": "",
      "dealership_id": "16878"
    },
    {
      "name": "Porsche West Palm Beach",
      "address": "2801 Okeechobee Boulevard",
      "city": "West Palm Beach",
      "state": "FL",
      "zip": "33409",
      "phone": "",
      "email": "",
      "website": "https://www.porschewestpalmbeach.com/",
      "hours": "",
      "dealership_id": "11398"
    },
    {
      "name": "Suncoast Porsche",
      "address": "5005 S. Tamaimi Trail",
      "city": "Sarasota",
      "state": "FL",
      "zip": "34231",
      "phone": "",
      "email": "",
      "website": "https://www.suncoastporsche.com/",
      "hours": "",
      "dealership_id": "13987"
    },
    {
      "name": "The Collection",
      "address": "200 Bird Road",
      "city": "Coral Gables",
      "state": "FL",
      "zip": "33146",
      "phone": "",
      "email": "",
      "website": "https://www.thecollectionporschemiami.com/",
      "hours": "",
      "dealership_id": "15862"
    },
    {
      "name": "Hendrick Porsche",
      "address": "6800 E. Independence Boulevard",
      "city": "Charlotte",
      "state": "NC",
      "zip": "28227",
      "phone": "",
      "email": "",
      "website": "https://www.hendrickporsche.com/",
      "hours": "",
      "dealership_id": "5890"
    },
    {
      "name": "Porsche Asheville",
      "address": "621 Brevard Road",
      "city": "Asheville",
      "state": "NC",
      "zip": "28806",
      "phone": "",
      "email": "",
      "website": "https://www.porscheasheville.com/",
      "hours": "",
      "dealership_id": "1500000098"
    },
    {
      "name": "Porsche Cary",
      "address": "700 Auto Park Blvd.",
      "city": "Cary",
      "state": "NC",
      "zip": "27511",
      "phone": "",
      "email": "",
      "website": "https://www.porschecary.com",
      "hours": "",
      "dealership_id": "1500007111"
    },
    {
      "name": "Porsche Charlotte Northlake",
      "address": "10205 Ronald Withrow Blvd",
      "city": "Charlotte",
      "state": "NC",
      "zip": "28216",
      "phone": "",
      "email": "",
      "website": "",
      "hours": "",
      "dealership_id": "1500007382"
    },
    {
      "name": "Porsche Greensboro",
      "address": "5603 Roanne Way",
      "city": "Greensboro",
      "state": "NC",
      "zip": "27409",
      "phone": "",
      "email": "",
      "website": "https://www.porschegreensboro.com/",
      "hours": "",
      "dealership_id": "5136"
    },
    {
      "name": "Porsche Southpoint",
      "address": "122 Kentington Drive",
      "city": "Durham",
      "state": "NC",
      "zip": "27713",
      "phone": "",
      "email": "",
      "website": "https://www.porschesouthpoint.com/",
      "hours": "",
      "dealership_id": "11364"
    },
    {
      "name": "Porsche Wilmington",
      "address": "4920 A New Centre Drive",
      "city": "Wilmington",
      "state": "NC",
      "zip": "28403",
      "phone": "",
      "email": "",
      "website": "https://www.porschewilmington.com/",
      "hours": "",
      "dealership_id": "1500005873"
    },
    {
      "name": "Porsche Beachwood",
      "address": "3750 Orange Place",
      "city": "Beachwood",
      "state": "OH",
      "zip": "44122",
      "phone": "",
      "email": "",
      "website": "https://www.porschebeachwood.com/",
      "hours": "",
      "dealership_id": "10340"
    },
    {
      "name": "Porsche Cincinnati Kings",
      "address": "9847 Kings Automall Road",
      "city": "Cincinnati",
      "state": "OH",
      "zip": "45249",
      "phone": "",
      "email": "",
      "website": "https://www.porscheofkingsautomall.com/",
      "hours": "",
      "dealership_id": "13529"
    },
    {
      "name": "Porsche Columbus",
      "address": "401 N. Hamilton Road",
      "city": "Columbus",
      "state": "OH",
      "zip": "43213",
      "phone": "",
      "email": "",
      "website": "https://www.byersporsche.com/",
      "hours": "",
      "dealership_id": "3577"
    },
    {
      "name": "Porsche Dublin",
      "address": "6325 Perimeter Loop Road",
      "city": "Dublin",
      "state": "OH",
      "zip": "43017",
      "phone": "",
      "email": "",
      "website": "https://www.porschedublin.com/",
      "hours": "",
      "dealership_id": "7849"
    },
    {
      "name": "Porsche North Olmsted",
      "address": "28400 Lorain Road",
      "city": "North Olmsted",
      "state": "OH",
      "zip": "44070",
      "phone": "",
      "email": "",
      "website": "https://www.northolmsted.porsche.com/",
      "hours": "",
      "dealership_id": "18992"
    },
    {
      "name": "Porsche of The Village",
      "address": "4113 Plainville Road",
      "city": "Cincinnati",
      "state": "OH",
      "zip": "45227",
      "phone": "",
      "email": "",
      "website": "https://www.porscheofthevillage.com/",
      "hours": "",
      "dealership_id": "4798"
    },
    {
      "name": "White-Allen European Auto Group",
      "address": "648 N. Springboro Pike",
      "city": "Dayton",
      "state": "OH",
      "zip": "45449",
      "phone": "",
      "email": "",
      "website": "https://www.white-allen.porschedealer.com/",
      "hours": "",
      "dealership_id": "14975"
    },
    {
      "name": "Checkered Flag Porsche",
      "address": "2865 Virginia Beach Boulevard",
      "city": "Virginia Beach",
      "state": "VA",
      "zip": "23452",
      "phone": "",
      "email": "",
      "website": "https://www.checkeredflagporsche.com/",
      "hours": "",
      "dealership_id": "1088"
    },
    {
      "name": "Euroclassics Porsche",
      "address": "11900 Midlothian Turnpike",
      "city": "Midlothian",
      "state": "VA",
      "zip": "23113",
      "phone": "",
      "email": "",
      "website": "https://www.euroclassics.porschedealer.com/",
      "hours": "",
      "dealership_id": "6027"
    },
    {
      "name": "Porsche Arlington",
      "address": "3100 Richmond Highway",
      "city": "Arlington",
      "state": "VA",
      "zip": "22202",
      "phone": "",
      "email": "",
      "website": "https://www.porschearlington.com/",
      "hours": "",
      "dealership_id": "9908"
    },
    {
      "name": "Porsche Chantilly",
      "address": "4055 Stonecroft Boulevard",
      "city": "Chantilly",
      "state": "VA",
      "zip": "20151",
      "phone": "",
      "email": "",
      "website": "https://www.porschechantilly.com/",
      "hours": "",
      "dealership_id": "1500000675"
    },
    {
      "name": "Porsche Charlottesville",
      "address": "1300 Richmond Road",
      "city": "Charlottesville",
      "state": "VA",
      "zip": "22911",
      "phone": "",
      "email": "",
      "website": "https://www.flowporschecharlottesville.com/",
      "hours": "",
      "dealership_id": "3654"
    },
    {
      "name": "Porsche Tysons Corner",
      "address": "8601 Westwood Center Drive",
      "city": "Vienna",
      "state": "VA",
      "zip": "22182",
      "phone": "",
      "email": "",
      "website": "https://www.porschetysonscorner.com/",
      "hours": "",
      "dealership_id": "4983"
    },
    {
      "name": "Porsche Boston",
      "address": "253 N. Main Street",
      "city": "Natick",
      "state": "MA",
      "zip": "01760",
      "phone": "",
      "email": "",
      "website": "",
      "hours": "",
      "dealership_id": "1500009561"
    },
    {
      "name": "Porsche Burlington",
      "address": "64 Cambridge Street",
      "city": "Burlington",
      "state": "MA",
      "zip": "01803",
      "phone": "",
      "email": "",
      "website": "",
      "hours": "",
      "dealership_id": "1500009507"
    },
    {
      "name": "Porsche Norwell",
      "address": "75 Pond Street",
      "city": "Norwell",
      "state": "MA",
      "zip": "02061",
      "phone": "",
      "email": "",
      "website": "https://www.porschenorwell.com/",
      "hours": "",
      "dealership_id": "12067"
    },
    {
      "name": "Porsche Westwood",
      "address": "411 Providence Highway",
      "city": "Westwood",
      "state": "MA",
      "zip": "02090",
      "phone": "",
      "email": "",
      "website": "https://www.porsche.westwood.com/",
      "hours": "",
      "dealership_id": "1500002163"
    },
    {
      "name": "Jack Daniels Motors",
      "address": "335 Route 17 South",
      "city": "Upper Saddle River",
      "state": "NJ",
      "zip": "07458",
      "phone": "",
      "email": "",
      "website": "https://www.jackdanielsporsche.com/",
      "hours": "",
      "dealership_id": "5296"
    },
    {
      "name": "Paul Miller Porsche",
      "address": "3419 Route 46 West",
      "city": "Parsippany",
      "state": "NJ",
      "zip": "07054",
      "phone": "",
      "email": "",
      "website": "https://www.paulmillerporsche.com/",
      "hours": "",
      "dealership_id": "6268"
    },
    {
      "name": "Porsche Cherry Hill",
      "address": "2261 W. Marlton Pike",
      "city": "Cherry Hill",
      "state": "NJ",
      "zip": "08002",
      "phone": "",
      "email": "",
      "website": "https://www.porschecherryhill.com/",
      "hours": "",
      "dealership_id": "7308"
    },
    {
      "name": "Porsche Edison",
      "address": "900 US Route 1",
      "city": "Edison",
      "state": "NJ",
      "zip": "08817",
      "phone": "",
      "email": "",
      "website": "https://edison.porsche.com/",
      "hours": "",
      "dealership_id": "8893"
    },
    {
      "name": "Porsche Englewood",
      "address": "105 Grand Avenue",
      "city": "Englewood",
      "state": "NJ",
      "zip": "07631",
      "phone": "",
      "email": "",
      "website": "https://englewood.porsche.com/en",
      "hours": "",
      "dealership_id": "3234"
    },
    {
      "name": "Porsche Flemington",
      "address": "213 Route 202",
      "city": "Flemington",
      "state": "NJ",
      "zip": "08822",
      "phone": "",
      "email": "",
      "website": "https://www.porscheflemington.com/",
      "hours": "",
      "dealership_id": "1500003309"
    },
    {
      "name": "Porsche Monmouth",
      "address": "280 NJ Route 36",
      "city": "West Long Branch",
      "state": "NJ",
      "zip": "07764",
      "phone": "",
      "email": "",
      "website": "https://www.porschemonmouth.com/",
      "hours": "",
      "dealership_id": "16927"
    },
    {
      "name": "Porsche Princeton",
      "address": "3333 Route 1",
      "city": "Lawrenceville",
      "state": "NJ",
      "zip": "08648",
      "phone": "",
      "email": "",
      "website": "https://www.princetonporsche.com/",
      "hours": "",
      "dealership_id": "6835"
    },
    {
      "name": "Porsche Service Center East Hanover",
      "address": "341 Route 10",
      "city": "East Hanover",
      "state": "NJ",
      "zip": "07936",
      "phone": "",
      "email": "",
      "website": "",
      "hours": "",
      "dealership_id": "1500006153"
    },
    {
      "name": "Porsche Danbury",
      "address": "23 Sugar Hollow Road",
      "city": "Danbury",
      "state": "CT",
      "zip": "06810",
      "phone": "",
      "email": "",
      "website": "https://www.porschedanbury.com/",
      "hours": "",
      "dealership_id": "1500004075"
    },
    {
      "name": "Porsche Fairfield",
      "address": "475 Commerce Drive",
      "city": "Fairfield",
      "state": "CT",
      "zip": "06825",
      "phone": "",
      "email": "",
      "website": "https://www.porschefairfield.com/",
      "hours": "",
      "dealership_id": "13412"
    },
    {
      "name": "Porsche Greenwich",
      "address": "241 West Putnam Avenue",
      "city": "Greenwich",
      "state": "CT",
      "zip": "06830",
      "phone": "",
      "email": "",
      "website": "https://www.porschegreenwich.com/",
      "hours": "",
      "dealership_id": "9817"
    },
    {
      "name": "Porsche Hartford",
      "address": "630 Connecticut Boulevard",
      "city": "East Hartford",
      "state": "CT",
      "zip": "06108",
      "phone": "",
      "email": "",
      "website": "https://www.hoffmanporsche.com/",
      "hours": "",
      "dealership_id": "11639"
    },
    {
      "name": "Porsche of Wallingford",
      "address": "800 S. Colony Street",
      "city": "Wallingford",
      "state": "CT",
      "zip": "06492",
      "phone": "",
      "email": "",
      "website": "https://www.porscheofwallingford.com/",
      "hours": "",
      "dealership_id": "2121"
    },
    {
      "name": "Porsche Annapolis",
      "address": "20 Hudson Street",
      "city": "Annapolis",
      "state": "MD",
      "zip": "21401",
      "phone": "",
      "email": "",
      "website": "https://www.porscheannapolis.com/",
      "hours": "",
      "dealership_id": "13641"
    },
    {
      "name": "Porsche Bethesda",
      "address": "11990 Rockville Pike",
      "city": "North Bethesda",
      "state": "MD",
      "zip": "20852",
      "phone": "",
      "email": "",
      "website": "https://www.porschebethesda.com/",
      "hours": "",
      "dealership_id": "13029"
    },
    {
      "name": "Porsche Hunt Valley",
      "address": "10260 York Road",
      "city": "Cockeysville",
      "state": "MD",
      "zip": "21030",
      "phone": "",
      "email": "",
      "website": "https://www.porschehuntvalley.com/",
      "hours": "",
      "dealership_id": "1500002162"
    },
    {
      "name": "Porsche Owings Mills",
      "address": "11309 Reisterstown Road",
      "city": "Owings Mills",
      "state": "MD",
      "zip": "21117",
      "phone": "",
      "email": "",
      "website": "https://www.porscheowingsmills.com/",
      "hours": "",
      "dealership_id": "12215"
    },
    {
      "name": "Porsche Silver Spring",
      "address": "3131 Automobile Boulevard",
      "city": "Silver Spring",
      "state": "MD",
      "zip": "20904",
      "phone": "",
      "email": "",
      "website": "https://www.porschesilverspring.com/",
      "hours": "",
      "dealership_id": "6666"
    },
    {
      "name": "Porsche Studio Chevy Chase",
      "address": "5471 Wisconsin Avenue, C-1",
      "city": "Chevy Chase",
      "state": "MD",
      "zip": "20815",
      "phone": "",
      "email": "",
      "website": "",
      "hours": "",
      "dealership_id": "1500007376"
    },
    {
      "name": "Porsche Minneapolis",
      "address": "9595 Wayzata Blvd.",
      "city": "Minneapolis",
      "state": "MN",
      "zip": "55426",
      "phone": "",
      "email": "",
      "website": "https://www.minneapolis.porschedealer.com/",
      "hours": "",
      "dealership_id": "1500006795"
    },
    {
      "name": "Porsche St. Paul",
      "address": "2490 Maplewood Drive",
      "city": "Maplewood",
      "state": "MN",
      "zip": "55109",
      "phone": "",
      "email": "",
      "website": "",
      "hours": "",
      "dealership_id": "1500006915"
    },
    {
      "name": "Gaudin Porsche of Las Vegas",
      "address": "6800 Redwood Street",
      "city": "Las Vegas",
      "state": "NV",
      "zip": "89118",
      "phone": "",
      "email": "",
      "website": "https://www.lasvegas.porsche.com/",
      "hours": "",
      "dealership_id": "6161"
    },
    {
      "name": "Porsche Henderson",
      "address": "7779 Eastgate Road",
      "city": "Henderson",
      "state": "NV",
      "zip": "89011",
      "phone": "",
      "email": "",
      "website": "https://henderson.porsche.com/",
      "hours": "",
      "dealership_id": "1500008248"
    },
    {
      "name": "Porsche Reno",
      "address": "11605 South Virginia Street",
      "city": "Reno",
      "state": "NV",
      "zip": "89511",
      "phone": "",
      "email": "",
      "website": "https://www.porschereno.com/",
      "hours": "",
      "dealership_id": "666"
    },
    {
      "name": "Porsche Bellevue",
      "address": "11910 N.E. 8th Street",
      "city": "Bellevue",
      "state": "WA",
      "zip": "98005",
      "phone": "",
      "email": "",
      "website": "https://www.porschebellevue.com/",
      "hours": "",
      "dealership_id": "3023"
    },
    {
      "name": "Porsche Seattle North",
      "address": "18600 Highway 99",
      "city": "Lynnwood",
      "state": "WA",
      "zip": "98037",
      "phone": "",
      "email": "",
      "website": "https://www.porscheseattlenorth.com/",
      "hours": "",
      "dealership_id": "19470"
    },
    {
      "name": "Porsche Spokane",
      "address": "21702 E. George Gee Avenue",
      "city": "Liberty Lake",
      "state": "WA",
      "zip": "99019",
      "phone": "",
      "email": "",
      "website": "https://www.porschespokane.com/",
      "hours": "",
      "dealership_id": "13894"
    },
    {
      "name": "Porsche Tacoma",
      "address": "1701 Alexander Avenue E.",
      "city": "Fife",
      "state": "WA",
      "zip": "98424",
      "phone": "",
      "email": "",
      "website": "https://www.porschetacoma.com/",
      "hours": "",
      "dealership_id": "4129"
    },
    {
      "name": "Porsche Beaverton",
      "address": "13875 SW Tualatin Valley Highway",
      "city": "Beaverton",
      "state": "OR",
      "zip": "97005",
      "phone": "",
      "email": "",
      "website": "https://beaverton.porsche.com/",
      "hours": "",
      "dealership_id": "16252"
    },
    {
      "name": "Porsche Bend",
      "address": "1045 S.E. 3rd Street",
      "city": "Bend",
      "state": "OR",
      "zip": "97702",
      "phone": "",
      "email": "",
      "website": "https://www.porschebend.com/",
      "hours": "",
      "dealership_id": "9211"
    },
    {
      "name": "Porsche Studio Portland",
      "address": "1432 N.W. Johnson Street",
      "city": "Portland",
      "state": "OR",
      "zip": "97209",
      "phone": "",
      "email": "",
      "website": "",
      "hours": "",
      "dealership_id": "1500004279"
    },
    {
      "name": "Gossett Porsche",
      "address": "1875 Covington Pike",
      "city": "Memphis",
      "state": "TN",
      "zip": "38128",
      "phone": "",
      "email": "",
      "website": "https://www.gossett.porschedealer.com/",
      "hours": "",
      "dealership_id": "8441"
    },
    {
      "name": "Harper Porsche",
      "address": "115 Perimeter Park Drive",
      "city": "Knoxville",
      "state": "TN",
      "zip": "37922",
      "phone": "",
      "email": "",
      "website": "https://www.harperporsche.com/",
      "hours": "",
      "dealership_id": "8142"
    },
    {
      "name": "Porsche of Chattanooga",
      "address": "2915 Yerbey Drive",
      "city": "Chattanooga",
      "state": "TN",
      "zip": "37421",
      "phone": "",
      "email": "",
      "website": "https://www.porscheofchattanooga.com/",
      "hours": "",
      "dealership_id": "8054"
    },
    {
      "name": "Porsche of Nashville",
      "address": "1580 Mallory Lane",
      "city": "Brentwood",
      "state": "TN",
      "zip": "37027",
      "phone": "",
      "email": "",
      "website": "https://www.porscheofnashville.com/",
      "hours": "",
      "dealership_id": "11058"
    },
    {
      "name": "McDaniels Porsche",
      "address": "490-1 Killian Road",
      "city": "Columbia",
      "state": "SC",
      "zip": "29203",
      "phone": "",
      "email": "",
      "website": "https://www.mcdanielsporsche.com/",
      "hours": "",
      "dealership_id": "10938"
    },
    {
      "name": "Porsche Charleston",
      "address": "1515 Savannah Highway",
      "city": "Charleston",
      "state": "SC",
      "zip": "29407",
      "phone": "",
      "email": "",
      "website": "https://www.porschecharleston.com/",
      "hours": "",
      "dealership_id": "8248"
    },
    {
      "name": "Porsche Hilton Head",
      "address": "107 Drivers Way",
      "city": "Hardeeville",
      "state": "SC",
      "zip": "29927",
      "phone": "",
      "email": "",
      "website": "https://www.porschehiltonhead.com/",
      "hours": "",
      "dealership_id": "1500001453"
    },
    {
      "name": "Porsche of Greenville",
      "address": "2668 Laurens Road",
      "city": "Greenville",
      "state": "SC",
      "zip": "29607",
      "phone": "",
      "email": "",
      "website": "https://www.porscheofgreenville.com/",
      "hours": "",
      "dealership_id": "7947"
    },
    {
      "name": "Porsche Service Center Chesterfield",
      "address": "17455 North Outer Forty",
      "city": "Chesterfield",
      "state": "MO",
      "zip": "63005",
      "phone": "",
      "email": "",
      "website": "",
      "hours": "",
      "dealership_id": "1500007761"
    },
    {
      "name": "Porsche Springfield",
      "address": "3508 East Division Street",
      "city": "Springfield",
      "state": "MO",
      "zip": "65803",
      "phone": "",
      "email": "",
      "website": "https://www.napletonporschespringfield.com/",
      "hours": "",
      "dealership_id": "17013"
    },
    {
      "name": "Porsche St. Louis",
      "address": "2970 South Hanley Road",
      "city": "St. Louis",
      "state": "MO",
      "zip": "63143",
      "phone": "",
      "email": "",
      "website": "https://www.porschestlouis.com/",
      "hours": "",
      "dealership_id": "16570"
    },
    {
      "name": "D-Patrick",
      "address": "200 N. Green River Road",
      "city": "Evansville",
      "state": "IN",
      "zip": "47715",
      "phone": "",
      "email": "",
      "website": "https://www.dpatrickporsche.com/",
      "hours": "",
      "dealership_id": "9351"
    },
    {
      "name": "Porsche Fort Wayne",
      "address": "5809 Illinois Road",
      "city": "Fort Wayne",
      "state": "IN",
      "zip": "46804",
      "phone": "",
      "email": "",
      "website": "https://www.porschefortwayne.com/",
      "hours": "",
      "dealership_id": "14500"
    },
    {
      "name": "Tom Wood Porsche",
      "address": "3473 East 96th Street",
      "city": "Indianapolis",
      "state": "IN",
      "zip": "46240",
      "phone": "",
      "email": "",
      "website": "https://www.tomwoodporsche.com/",
      "hours": "",
      "dealership_id": "6638"
    },
    {
      "name": "Porsche Louisville",
      "address": "4720 Bowling Blvd.",
      "city": "Louisville",
      "state": "KY",
      "zip": "40207",
      "phone": "",
      "email": "",
      "website": "",
      "hours": "",
      "dealership_id": "15000001037"
    },
    {
      "name": "Harris Porsche",
      "address": "12326 Airline Highway",
      "city": "Baton Rouge",
      "state": "LA",
      "zip": "70817",
      "phone": "",
      "email": "",
      "website": "https://www.harrisporsche.com/",
      "hours": "",
      "dealership_id": "845"
    },
    {
      "name": "Porsche New Orleans",
      "address": "3700 N. Causeway Blvd.",
      "city": "Metairie",
      "state": "LA",
      "zip": "70002",
      "phone": "",
      "email": "",
      "website": "",
      "hours": "",
      "dealership_id": "1500007136"
    },
    {
      "name": "Porsche Shreveport",
      "address": "100 Bert Kouns Industrial Loop",
      "city": "Shreveport",
      "state": "LA",
      "zip": "71106",
      "phone": "",
      "email": "",
      "website": "https://www.porscheshreveport.com/",
      "hours": "",
      "dealership_id": "1500007374"
    },
    {
      "name": "Porsche Fox Valley",
      "address": "2986 N. Victory Lane",
      "city": "Appleton",
      "state": "WI",
      "zip": "54913",
      "phone": "",
      "email": "",
      "website": "https://www.porschefoxvalley.com/",
      "hours": "",
      "dealership_id": "5381"
    },
    {
      "name": "Porsche Madison",
      "address": "2300 Rimrock Road",
      "city": "Madison",
      "state": "WI",
      "zip": "53713",
      "phone": "",
      "email": "",
      "website": "https://www.zimbrickporsche.com/",
      "hours": "",
      "dealership_id": "7630"
    },
    {
      "name": "Porsche Milwaukee North",
      "address": "1400 West Silver Spring Drive",
      "city": "Milwaukee",
      "state": "WI",
      "zip": "53209",
      "phone": "",
      "email": "",
      "website": "https://www.porschemilwaukeenorth.com/",
      "hours": "",
      "dealership_id": "17012"
    },
    {
      "name": "Porsche Waukesha",
      "address": "2228 E. Moreland Boulevard",
      "city": "Waukesha",
      "state": "WI",
      "zip": "53186",
      "phone": "",
      "email": "",
      "website": "https://www.porschewaukesha.com/",
      "hours": "",
      "dealership_id": "12656"
    },
    {
      "name": "Porsche Des Moines",
      "address": "7220 Lake Drive",
      "city": "West Des Moines",
      "state": "IA",
      "zip": "50266",
      "phone": "",
      "email": "",
      "website": "https://www.porschedesmoines.com/",
      "hours": "",
      "dealership_id": "1500009126"
    },
    {
      "name": "Porsche Kansas City",
      "address": "9405 West 65th Street",
      "city": "Merriam",
      "state": "KS",
      "zip": "66203",
      "phone": "",
      "email": "",
      "website": "https://www.porschekansascity.com/",
      "hours": "",
      "dealership_id": "8237"
    },
    {
      "name": "Porsche Wichita",
      "address": "10900 E. 13th Street",
      "city": "N. Wichita",
      "state": "KS",
      "zip": "67206",
      "phone": "",
      "email": "",
      "website": "https://www.porscheofwichita.com/",
      "hours": "",
      "dealership_id": "17392"
    },
    {
      "name": "Porsche Oklahoma City",
      "address": "12910 N. Broadway Extension",
      "city": "Oklahoma City",
      "state": "OK",
      "zip": "73114",
      "phone": "",
      "email": "",
      "website": "https://www.porscheoklahomacity.com/",
      "hours": "",
      "dealership_id": "9376"
    },
    {
      "name": "Porsche Tulsa",
      "address": "9393 S. Memorial",
      "city": "Tulsa",
      "state": "OK",
      "zip": "74133",
      "phone": "",
      "email": "",
      "website": "https://www.porschetulsa.com/",
      "hours": "",
      "dealership_id": "12158"
    },
    {
      "name": "Porsche Lehi",
      "address": "3425 North Digital Drive",
      "city": "Lehi",
      "state": "UT",
      "zip": "84043",
      "phone": "",
      "email": "",
      "website": "https://www.porschelehi.com/",
      "hours": "",
      "dealership_id": "1826"
    },
    {
      "name": "Porsche Salt Lake City",
      "address": "1045 S. State Street",
      "city": "Salt Lake City",
      "state": "UT",
      "zip": "84111",
      "phone": "",
      "email": "",
      "website": "https://saltlakecity.porsche.com/en",
      "hours": "",
      "dealership_id": "20026"
    },
    {
      "name": "Porsche Albuquerque",
      "address": "8900 Pan American Freeway, N.E.",
      "city": "Albuquerque",
      "state": "NM",
      "zip": "87113",
      "phone": "",
      "email": "",
      "website": "https://www.porschealbuquerque.com/",
      "hours": "",
      "dealership_id": "958"
    },
    {
      "name": "Porsche Omaha",
      "address": "18101 Burt Street",
      "city": "Omaha",
      "state": "NE",
      "zip": "68022",
      "phone": "",
      "email": "",
      "website": "https://www.porscheomaha.com/",
      "hours": "",
      "dealership_id": "4564"
    },
    {
      "name": "Porsche Little Rock",
      "address": "516 Colonel Glenn Plaza Loop",
      "city": "Little Rock",
      "state": "AR",
      "zip": "72210",
      "phone": "",
      "email": "",
      "website": "https://www.porschelittlerock.com/",
      "hours": "",
      "dealership_id": "1500007384"
    },
    {
      "name": "Porsche Delaware",
      "address": "1851 Ogletown Road",
      "city": "Newark",
      "state": "DE",
      "zip": "19711",
      "phone": "",
      "email": "",
      "website": "https://www.porschedelaware.com/",
      "hours": "",
      "dealership_id": "17403"
    },
    {
      "name": "Porsche Hawaii",
      "address": "720 Kapiolani Blvd.",
      "city": "Honolulu",
      "state": "HI",
      "zip": "96813",
      "phone": "",
      "email": "",
      "website": "https://www.porschehawaii.com/",
      "hours": "",
      "dealership_id": "18984"
    },
    {
      "name": "Porsche Boise",
      "address": "7767 W. Gratz Drive",
      "city": "Boise",
      "state": "ID",
      "zip": "83709",
      "phone": "",
      "email": "",
      "website": "https://www.porscheboise.com/",
      "hours": "",
      "dealership_id": "1500000031"
    },
    {
      "name": "Porsche Maine",
      "address": "196 US Route 1",
      "city": "Falmouth",
      "state": "ME",
      "zip": "04105",
      "phone": "",
      "email": "",
      "website": "https://www.morong-falmouth.porschedealer.com/",
      "hours": "",
      "dealership_id": "6122"
    },
    {
      "name": "Porsche Jackson",
      "address": "5385 Interstate 55 North",
      "city": "Jackson",
      "state": "MS",
      "zip": "39206",
      "phone": "",
      "email": "",
      "website": "https://jackson.porsche.com/en",
      "hours": "",
      "dealership_id": "18657"
    },
    {
      "name": "Porsche Nashua",
      "address": "9 Northeastern Blvd.",
      "city": "Nashua",
      "state": "NH",
      "zip": "03062",
      "phone": "",
      "email": "",
      "website": "https://www.porschenashua.com/",
      "hours": "",
      "dealership_id": "14248"
    },
    {
      "name": "Porsche Stratham",
      "address": "50 Portsmouth Avenue, Route 33",
      "city": "Stratham",
      "state": "NH",
      "zip": "03885",
      "phone": "",
      "email": "",
      "website": "https://www.porschestratham.com/",
      "hours": "",
      "dealership_id": "8412"
    },
    {
      "name": "Valley Imports",
      "address": "402 40th Street SW",
      "city": "Fargo",
      "state": "ND",
      "zip": "58103",
      "phone": "",
      "email": "",
      "website": "https://www.valley-imports.porschedealer.com/",
      "hours": "",
      "dealership_id": "11327"
    },
    {
      "name": "Porsche Warwick",
      "address": "1517A Bald Hill road",
      "city": "Warwick",
      "state": "RI",
      "zip": "02886",
      "phone": "",
      "email": "",
      "website": "https://www.porschewarwick.com/",
      "hours": "",
      "dealership_id": "326"
    },
    {
      "name": "Porsche Anchorage",
      "address": "6115 Old Seward Highway",
      "city": "Anchorage",
      "state": "AK",
      "zip": "99518",
      "phone": "",
      "email": "",
      "website": "https://www.porscheanchorage.com/",
      "hours": "",
      "dealership_id": "1500003449"
    },
    {
      "name": "Porsche Boise",
      "address": "7767 W. Gratz Drive",
      "city": "Boise",
      "state": "ID",
      "zip": "83709",
      "phone": "",
      "email": "",
      "website": "https://www.porscheboise.com/",
      "hours": "",
      "dealership_id": "1500000031"
    },
    {
      "name": "Porsche Spokane",
      "address": "21702 E. George Gee Avenue",
      "city": "Liberty Lake",
      "state": "WA",
      "zip": "99019",
      "phone": "",
      "email": "",
      "website": "https://www.porschespokane.com/",
      "hours": "",
      "dealership_id": "13894"
    },
    {
      "name": "Porsche El Paso",
      "address": "6421 S. Desert Boulevard",
      "city": "El Paso",
      "state": "TX",
      "zip": "79932",
      "phone": "",
      "email": "",
      "website": "https://www.porscheelpaso.com/",
      "hours": "",
      "dealership_id": "18373"
    },
    {
      "name": "Porsche Albuquerque",
      "address": "8900 Pan American Freeway, N.E.",
      "city": "Albuquerque",
      "state": "NM",
      "zip": "87113",
      "phone": "",
      "email": "",
      "website": "https://www.porschealbuquerque.com/",
      "hours": "",
      "dealership_id": "958"
    },
    {
      "name": "Porsche Springfield",
      "address": "3508 East Division Street",
      "city": "Springfield",
      "state": "MO",
      "zip": "65803",
      "phone": "",
      "email": "",
      "website": "https://www.napletonporschespringfield.com/",
      "hours": "",
      "dealership_id": "17013"
    },
    {
      "name": "Porsche Wichita",
      "address": "10900 E. 13th Street",
      "city": "N. Wichita",
      "state": "KS",
      "zip": "67206",
      "phone": "",
      "email": "",
      "website": "https://www.porscheofwichita.com/",
      "hours": "",
      "dealership_id": "17392"
    },
    {
      "name": "Hendrick Porsche",
      "address": "6800 E. Independence Boulevard",
      "city": "Charlotte",
      "state": "NC",
      "zip": "28227",
      "phone": "",
      "email": "",
      "website": "https://www.hendrickporsche.com/",
      "hours": "",
      "dealership_id": "5890"
    },
    {
      "name": "Porsche Asheville",
      "address": "621 Brevard Road",
      "city": "Asheville",
      "state": "NC",
      "zip": "28806",
      "phone": "",
      "email": "",
      "website": "https://www.porscheasheville.com/",
      "hours": "",
      "dealership_id": "1500000098"
    },
    {
      "name": "Porsche Cary",
      "address": "700 Auto Park Blvd.",
      "city": "Cary",
      "state": "NC",
      "zip": "27511",
      "phone": "",
      "email": "",
      "website": "https://www.porschecary.com",
      "hours": "",
      "dealership_id": "1500007111"
    },
    {
      "name": "Porsche Charlotte Northlake",
      "address": "10205 Ronald Withrow Blvd",
      "city": "Charlotte",
      "state": "NC",
      "zip": "28216",
      "phone": "",
      "email": "",
      "website": "",
      "hours": "",
      "dealership_id": "1500007382"
    },
    {
      "name": "Porsche Greensboro",
      "address": "5603 Roanne Way",
      "city": "Greensboro",
      "state": "NC",
      "zip": "27409",
      "phone": "",
      "email": "",
      "website": "https://www.porschegreensboro.com/",
      "hours": "",
      "dealership_id": "5136"
    },
    {
      "name": "Porsche Southpoint",
      "address": "122 Kentington Drive",
      "city": "Durham",
      "state": "NC",
      "zip": "27713",
      "phone": "",
      "email": "",
      "website": "https://www.porschesouthpoint.com/",
      "hours": "",
      "dealership_id": "11364"
    },
    {
      "name": "Porsche Wilmington",
      "address": "4920 A New Centre Drive",
      "city": "Wilmington",
      "state": "NC",
      "zip": "28403",
      "phone": "",
      "email": "",
      "website": "https://www.porschewilmington.com/",
      "hours": "",
      "dealership_id": "1500005873"
    },
    {
      "name": "Porsche Bend",
      "address": "1045 S.E. 3rd Street",
      "city": "Bend",
      "state": "OR",
      "zip": "97702",
      "phone": "",
      "email": "",
      "website": "https://www.porschebend.com/",
      "hours": "",
      "dealership_id": "9211"
    },
    {
      "name": "Porsche Fresno",
      "address": "7121 N. Palm Avenue",
      "city": "Fresno",
      "state": "CA",
      "zip": "93650",
      "phone": "",
      "email": "",
      "website": "https://www.porschefresno.com/",
      "hours": "",
      "dealership_id": "17642"
    },
    {
      "name": "Porsche Reno",
      "address": "11605 South Virginia Street",
      "city": "Reno",
      "state": "NV",
      "zip": "89511",
      "phone": "",
      "email": "",
      "website": "https://www.porschereno.com/",
      "hours": "",
      "dealership_id": "666"
    },
    {
      "name": "Porsche Monterey",
      "address": "1781 Del Monte Boulevard",
      "city": "Seaside",
      "state": "CA",
      "zip": "93955",
      "phone": "",
      "email": "",
      "website": "https://www.porschemonterey.com/",
      "hours": "",
      "dealership_id": "13652"
    },
    {
      "name": "Porsche Service Center Los Gatos",
      "address": "16151 Los Gatos Blvd.",
      "city": "Los Gatos",
      "state": "CA",
      "zip": "95032",
      "phone": "",
      "email": "",
      "website": "",
      "hours": "",
      "dealership_id": "1500008651"
    },
    {
      "name": "Porsche Stevens Creek",
      "address": "4155 Stevens Creek Boulevard",
      "city": "Santa Clara",
      "state": "CA",
      "zip": "95051",
      "phone": "",
      "email": "",
      "website": "https://www.porschestevenscreek.com/",
      "hours": "",
      "dealership_id": "5478"
    },
    {
      "name": "Porsche of Tucson",
      "address": "4690 E. 22nd Street",
      "city": "Tucson",
      "state": "AZ",
      "zip": "85711",
      "phone": "",
      "email": "",
      "website": "https://www.porscheoftucson.com/",
      "hours": "",
      "dealership_id": "5968"
    },
    {
      "name": "Porsche Santa Barbara",
      "address": "402 South Hope Avenue",
      "city": "Santa Barbara",
      "state": "CA",
      "zip": "93105",
      "phone": "",
      "email": "",
      "website": "https://www.porschesantabarbara.com/",
      "hours": "",
      "dealership_id": "4773"
    },
    {
      "name": "Porsche Westlake",
      "address": "3863 Auto Mall Drive",
      "city": "Thousand Oaks",
      "state": "CA",
      "zip": "91362",
      "phone": "",
      "email": "",
      "website": "https://www.rusnakwestlakeporsche.com/",
      "hours": "",
      "dealership_id": "3290"
    },
    {
      "name": "Porsche San Luis Obispo",
      "address": "12100 Los Osos Valley Road",
      "city": "San Luis Obispo",
      "state": "CA",
      "zip": "93405",
      "phone": "",
      "email": "",
      "website": "https://sanluisobispo.porsche.com",
      "hours": "",
      "dealership_id": "1500003495"
    },
    {
      "name": "Porsche Bakersfield",
      "address": "3105 Auto Mall Drive",
      "city": "Bakersfield",
      "state": "CA",
      "zip": "93313",
      "phone": "",
      "email": "",
      "website": "https://bakersfield.porsche.com",
      "hours": "",
      "dealership_id": "18520"
    },
    {
      "name": "Porsche Palm Springs",
      "address": "3735 East Palm Canyon Drive",
      "city": "Palm Springs",
      "state": "CA",
      "zip": "92264",
      "phone": "",
      "email": "",
      "website": "https://www.porschepalmsprings.com/",
      "hours": "",
      "dealership_id": "12058"
    },
    {
      "name": "Porsche Riverside",
      "address": "8423 Indiana Avenue",
      "city": "Riverside",
      "state": "CA",
      "zip": "92504",
      "phone": "",
      "email": "",
      "website": "https://www.porscheriverside.com/",
      "hours": "",
      "dealership_id": "833"
    },
    {
      "name": "Porsche Jacksonville",
      "address": "11211 Atlantic Blvd.",
      "city": "Jacksonville",
      "state": "FL",
      "zip": "32225",
      "phone": "",
      "email": "",
      "website": "https://www.porschejacksonville.com/",
      "hours": "",
      "dealership_id": "17011"
    },
    {
      "name": "Porsche Tallahassee",
      "address": "3701 W. Tennessee Street",
      "city": "Tallahassee",
      "state": "FL",
      "zip": "32304",
      "phone": "",
      "email": "",
      "website": "https://www.capitalporsche.com/",
      "hours": "",
      "dealership_id": "10317"
    },
    {
      "name": "Porsche Hilton Head",
      "address": "107 Drivers Way",
      "city": "Hardeeville",
      "state": "SC",
      "zip": "29927",
      "phone": "",
      "email": "",
      "website": "https://www.porschehiltonhead.com/",
      "hours": "",
      "dealership_id": "1500001453"
    },
    {
      "name": "Porsche Charleston",
      "address": "1515 Savannah Highway",
      "city": "Charleston",
      "state": "SC",
      "zip": "29407",
      "phone": "",
      "email": "",
      "website": "https://www.porschecharleston.com/",
      "hours": "",
      "dealership_id": "8248"
    },
    {
      "name": "Porsche of Greenville",
      "address": "2668 Laurens Road",
      "city": "Greenville",
      "state": "SC",
      "zip": "29607",
      "phone": "",
      "email": "",
      "website": "https://www.porscheofgreenville.com/",
      "hours": "",
      "dealership_id": "7947"
    },
    {
      "name": "Porsche Syracuse",
      "address": "5885 East Circle Drive",
      "city": "Cicero",
      "state": "NY",
      "zip": "13039",
      "phone": "",
      "email": "",
      "website": "https://www.syracuse.porschedealer.com/",
      "hours": "",
      "dealership_id": "4612"
    },
    {
      "name": "Porsche Rochester",
      "address": "3955 West Henrietta Road",
      "city": "Rochester",
      "state": "NY",
      "zip": "14623",
      "phone": "",
      "email": "",
      "website": "https://www.porscherochester.com/",
      "hours": "",
      "dealership_id": "8828"
    },
    {
      "name": "Porsche Buffalo",
      "address": "8135 Main Street",
      "city": "Williamsville",
      "state": "NY",
      "zip": "14221",
      "phone": "",
      "email": "",
      "website": "https://www.porschebuffalo.com/",
      "hours": "",
      "dealership_id": "1398"
    },
    {
      "name": "Porsche Clifton Park",
      "address": "205 Route 146",
      "city": "Mechanicville",
      "state": "NY",
      "zip": "12118",
      "phone": "",
      "email": "",
      "website": "https://www.porschecliftonpark.com/",
      "hours": "",
      "dealership_id": "6536"
    },
    {
      "name": "Porsche Okemos",
      "address": "2777 Jolly Road",
      "city": "Okemos",
      "state": "MI",
      "zip": "48864",
      "phone": "",
      "email": "",
      "website": "https://www.porscheokemos.com/",
      "hours": "",
      "dealership_id": "10926"
    },
    {
      "name": "Porsche Ann Arbor",
      "address": "2575 S State Street",
      "city": "Ann Arbor",
      "state": "MI",
      "zip": "48104",
      "phone": "",
      "email": "",
      "website": "https://www.porscheannarbor.com/",
      "hours": "",
      "dealership_id": "15631"
    },
    {
      "name": "Porsche Novi",
      "address": "24305 Haggerty Road",
      "city": "Novi",
      "state": "MI",
      "zip": "48375",
      "phone": "",
      "email": "",
      "website": "https://www.porschenovi.com/",
      "hours": "",
      "dealership_id": "1500001053"
    },
    {
      "name": "Porsche Grand Rapids",
      "address": "6025 28th Street SE",
      "city": "Grand Rapids",
      "state": "MI",
      "zip": "49546",
      "phone": "",
      "email": "",
      "website": "https://www.porschegrandrapids.com/",
      "hours": "",
      "dealership_id": "6316"
    },
    {
      "name": "Porsche Tacoma",
      "address": "1701 Alexander Avenue E.",
      "city": "Fife",
      "state": "WA",
      "zip": "98424",
      "phone": "",
      "email": "",
      "website": "https://www.porschetacoma.com/",
      "hours": "",
      "dealership_id": "4129"
    },
    {
      "name": "Porsche Spokane",
      "address": "21702 E. George Gee Avenue",
      "city": "Liberty Lake",
      "state": "WA",
      "zip": "99019",
      "phone": "",
      "email": "",
      "website": "https://www.porschespokane.com/",
      "hours": "",
      "dealership_id": "13894"
    },
    {
      "name": "Porsche Des Moines",
      "address": "7220 Lake Drive",
      "city": "West Des Moines",
      "state": "IA",
      "zip": "50266",
      "phone": "",
      "email": "",
      "website": "https://www.porschedesmoines.com/",
      "hours": "",
      "dealership_id": "1500009126"
    },
    {
      "name": "Valley Imports",
      "address": "402 40th Street SW",
      "city": "Fargo",
      "state": "ND",
      "zip": "58103",
      "phone": "",
      "email": "",
      "website": "https://www.valley-imports.porschedealer.com/",
      "hours": "",
      "dealership_id": "11327"
    },
    {
      "name": "Porsche Delaware",
      "address": "1851 Ogletown Road",
      "city": "Newark",
      "state": "DE",
      "zip": "19711",
      "phone": "",
      "email": "",
      "website": "https://www.porschedelaware.com/",
      "hours": "",
      "dealership_id": "17403"
    },
    {
      "name": "Porsche Annapolis",
      "address": "20 Hudson Street",
      "city": "Annapolis",
      "state": "MD",
      "zip": "21401",
      "phone": "",
      "email": "",
      "website": "https://www.porscheannapolis.com/",
      "hours": "",
      "dealership_id": "13641"
    },
    {
      "name": "Porsche Jackson",
      "address": "5385 Interstate 55 North",
      "city": "Jackson",
      "state": "MS",
      "zip": "39206",
      "phone": "",
      "email": "",
      "website": "https://jackson.porsche.com/en",
      "hours": "",
      "dealership_id": "18657"
    },
    {
      "name": "Porsche Nashua",
      "address": "9 Northeastern Blvd.",
      "city": "Nashua",
      "state": "NH",
      "zip": "03062",
      "phone": "",
      "email": "",
      "website": "https://www.porschenashua.com/",
      "hours": "",
      "dealership_id": "14248"
    },
    {
      "name": "Porsche Stratham",
      "address": "50 Portsmouth Avenue, Route 33",
      "city": "Stratham",
      "state": "NH",
      "zip": "03885",
      "phone": "",
      "email": "",
      "website": "https://www.porschestratham.com/",
      "hours": "",
      "dealership_id": "8412"
    },
    {
      "name": "Porsche Burlington",
      "address": "64 Cambridge Street",
      "city": "Burlington",
      "state": "MA",
      "zip": "01803",
      "phone": "",
      "email": "",
      "website": "",
      "hours": "",
      "dealership_id": "1500009507"
    },
    {
      "name": "Porsche Boston",
      "address": "253 N. Main Street",
      "city": "Natick",
      "state": "MA",
      "zip": "01760",
      "phone": "",
      "email": "",
      "website": "",
      "hours": "",
      "dealership_id": "1500009561"
    },
    {
      "name": "Porsche Warwick",
      "address": "1517A Bald Hill road",
      "city": "Warwick",
      "state": "RI",
      "zip": "02886",
      "phone": "",
      "email": "",
      "website": "https://www.porschewarwick.com/",
      "hours": "",
      "dealership_id": "326"
    },
    {
      "name": "Porsche Westwood",
      "address": "411 Providence Highway",
      "city": "Westwood",
      "state": "MA",
      "zip": "02090",
      "phone": "",
      "email": "",
      "website": "https://www.porsche.westwood.com/",
      "hours": "",
      "dealership_id": "1500002163"
    },
    {
      "name": "Porsche Norwell",
      "address": "75 Pond Street",
      "city": "Norwell",
      "state": "MA",
      "zip": "02061",
      "phone": "",
      "email": "",
      "website": "https://www.porschenorwell.com/",
      "hours": "",
      "dealership_id": "12067"
    },
    {
      "name": "Porsche Studio San Diego",
      "address": "Fashion Valley Mall, 7007 Friars Road",
      "city": "San Diego",
      "state": "CA",
      "zip": "92108",
      "phone": "",
      "email": "",
      "website": "",
      "hours": "",
      "dealership_id": "1500005102"
    },
    {
      "name": "Porsche Carlsbad",
      "address": "6800 Avenida Encinas",
      "city": "Carlsbad",
      "state": "CA",
      "zip": "92011",
      "phone": "",
      "email": "",
      "website": "https://www.porschecarlsbad.com/",
      "hours": "",
      "dealership_id": "11205"
    },
    {
      "name": "Porsche South Austin",
      "address": "6001 S I-35 Frontage Rd",
      "city": "Austin",
      "state": "TX",
      "zip": "78744",
      "phone": "",
      "email": "",
      "website": "https://www.porschesouthaustin.com/",
      "hours": "",
      "dealership_id": "1500002445"
    }
  ]
}