[
  {
    "_metadata": {
      "total_dealerships": 277,
      "target_dealerships": 272,
      "progress_percentage": 101.8,
      "still_needed": 0,
      "states_covered": 33,
      "last_updated": "2025-01-24",
      "data_source": "Tesla official website - real data only"
    }
  },
  {
    "name": "Glendale",
    "address": "9245 W Glendale Ave",
    "city": "Glendale",
    "state": "Arizona",
    "zip_code": "85305",
    "phone": "(602) 337-5554",
    "latitude": 33.5368835,
    "longitude": -112.2578684,
    "website_url": "https://www.tesla.com/findus/location/store/glendale",
    "demo_drive_url": "https://www.tesla.com/drive?lat=33.5368835&lng=-112.2578684"
  },
  {
    "name": "Mesa",
    "address": "7444 E Hampton Ave",
    "city": "Mesa",
    "state": "Arizona",
    "zip_code": "85209",
    "phone": "6026273515",
    "latitude": 33.3919982,
    "longitude": -111.6711962,
    "website_url": "https://www.tesla.com/findus/location/store/mesa",
    "demo_drive_url": "https://www.tesla.com/drive?lat=33.3919982&lng=-111.6711962"
  },
  {
    "name": "Scottsdale",
    "address": "8300 E Raintree Dr",
    "city": "Scottsdale",
    "state": "Arizona",
    "zip_code": "85260",
    "phone": "480-361-0036",
    "latitude": 33.6197263,
    "longitude": -111.9019416,
    "website_url": "https://www.tesla.com/findus/location/store/scottsdale",
    "demo_drive_url": "https://www.tesla.com/drive?lat=33.6197263&lng=-111.9019416"
  },
  {
    "name": "Scottsdale-Fashion Square",
    "address": "7014 E. Camelback Road Suite #1210",
    "city": "Scottsdale",
    "state": "Arizona",
    "zip_code": "85251",
    "phone": "(480) 946-3735",
    "latitude": 33.503167,
    "longitude": -111.92968,
    "website_url": "https://www.tesla.com/findus/location/store/scottsdalefashionsquare",
    "demo_drive_url": "https://www.tesla.com/drive?lat=33.503167&lng=-111.92968"
  },
  {
    "name": "Scottsdale-Kierland Commons",
    "address": "15215 N. Kierland Blvd #165B1A",
    "city": "Scottsdale",
    "state": "Arizona",
    "zip_code": "85254",
    "phone": "480-333-0029",
    "latitude": 33.625049,
    "longitude": -111.928706,
    "website_url": "https://www.tesla.com/findus/location/store/scottsdalekierlandcommons",
    "demo_drive_url": "https://www.tesla.com/drive?lat=33.625049&lng=-111.928706"
  },
  {
    "name": "Tempe - E. University Drive",
    "address": "2077 East University Drive",
    "city": "Tempe",
    "state": "Arizona",
    "zip_code": "85281",
    "phone": "602-643-0024",
    "latitude": 33.421679,
    "longitude": -111.897325,
    "website_url": "https://www.tesla.com/findus/location/store/tempee.universitydrive",
    "demo_drive_url": "https://www.tesla.com/drive?lat=33.421679&lng=-111.897325"
  },
  {
    "name": "Deer Valley",
    "address": "21030 N 19th Ave",
    "city": "Phoenix",
    "state": "Arizona",
    "zip_code": "85027",
    "phone": "(480) 293-2097",
    "latitude": 33.6779561,
    "longitude": -112.1008029,
    "website_url": "https://www.tesla.com/findus/location/store/deervalley",
    "demo_drive_url": "https://www.tesla.com/drive?lat=33.6779561&lng=-112.1008029"
  },
  {
    "name": "Tucson",
    "address": "5081 N Oracle Rd",
    "city": "Tucson",
    "state": "Arizona",
    "zip_code": "85704",
    "phone": "520/416-7974",
    "latitude": 32.2986337,
    "longitude": -110.9790634,
    "website_url": "https://www.tesla.com/findus/location/store/tucson",
    "demo_drive_url": "https://www.tesla.com/drive?lat=32.2986337&lng=-110.9790634"
  },
  {
    "name": "Santa Rosa",
    "address": "3286 Airway Drive",
    "city": "Santa Rosa",
    "state": "California",
    "zip_code": "95403",
    "phone": "707-806-5040",
    "latitude": 38.4741754,
    "longitude": -122.737459,
    "website_url": "https://www.tesla.com/findus/location/store/santarosa",
    "demo_drive_url": "https://www.tesla.com/drive?lat=38.4741754&lng=-122.737459"
  },
  {
    "name": "Alhambra",
    "address": "1200 W Main St",
    "city": "Alhambra",
    "state": "California",
    "zip_code": "91801",
    "phone": "626-313-5967",
    "latitude": 34.0911499,
    "longitude": -118.1360862,
    "website_url": "https://www.tesla.com/findus/location/store/alhambra",
    "demo_drive_url": "https://www.tesla.com/drive?lat=34.0911499&lng=-118.1360862"
  },
  {
    "name": "Aliso Viejo",
    "address": "26501 Aliso Creek Rd",
    "city": "Aliso Viejo",
    "state": "California",
    "zip_code": "92656",
    "phone": "(949) 860-8050",
    "latitude": 33.5795431,
    "longitude": -117.7239588,
    "website_url": "https://www.tesla.com/findus/location/store/alisoviejo",
    "demo_drive_url": "https://www.tesla.com/drive?lat=33.5795431&lng=-117.7239588"
  },
  {
    "name": "Bakersfield",
    "address": "5206 Young St Suite B",
    "city": "Bakersfield",
    "state": "California",
    "zip_code": "93311",
    "phone": "661-885-3939",
    "latitude": 35.307366,
    "longitude": -119.098094,
    "website_url": "https://www.tesla.com/findus/location/store/bakersfield",
    "demo_drive_url": "https://www.tesla.com/drive?lat=35.307366&lng=-119.098094"
  },
  {
    "name": "Berkeley",
    "address": "1731 Fourth St",
    "city": "Berkeley",
    "state": "California",
    "zip_code": "94710",
    "phone": "(510) 898-7773",
    "latitude": 37.8709978,
    "longitude": -122.3007859,
    "website_url": "https://www.tesla.com/findus/location/store/berkeley",
    "demo_drive_url": "https://www.tesla.com/drive?lat=37.8709978&lng=-122.3007859"
  },
  {
    "name": "Brea-Brea Mall",
    "address": "1065 BREA MALL",
    "city": "BREA",
    "state": "California",
    "zip_code": "92821",
    "phone": "7146740296",
    "latitude": 33.9153422,
    "longitude": -117.8864509,
    "website_url": "https://www.tesla.com/findus/location/store/breabreamall",
    "demo_drive_url": "https://www.tesla.com/drive?lat=33.9153422&lng=-117.8864509"
  },
  {
    "name": "Buena Park",
    "address": "6692 Auto Center Drive",
    "city": "Buena Park",
    "state": "California",
    "zip_code": "90621",
    "phone": "714-735-5696",
    "latitude": 33.863556,
    "longitude": -117.99074,
    "website_url": "https://www.tesla.com/findus/location/store/buenapark",
    "demo_drive_url": "https://www.tesla.com/drive?lat=33.863556&lng=-117.99074"
  },
  {
    "name": "Burbank",
    "address": "811 South San Fernando Boulevard",
    "city": "Burbank",
    "state": "California",
    "zip_code": "91502",
    "phone": "818-480-9217",
    "latitude": 34.174826,
    "longitude": -118.301286,
    "website_url": "https://www.tesla.com/findus/location/store/burbank",
    "demo_drive_url": "https://www.tesla.com/drive?lat=34.174826&lng=-118.301286"
  },
  {
    "name": "Burlingame",
    "address": "50 Edwards Ct",
    "city": "Burlingame",
    "state": "California",
    "zip_code": "94010",
    "phone": "(650)642-1176",
    "latitude": 37.593128,
    "longitude": -122.367306,
    "website_url": "https://www.tesla.com/findus/location/store/burlingame",
    "demo_drive_url": "https://www.tesla.com/drive?lat=37.593128&lng=-122.367306"
  },
  {
    "name": "Camarillo",
    "address": "311 E Daily Drive",
    "city": "Camarillo",
    "state": "California",
    "zip_code": "93010",
    "phone": "805-465-1696",
    "latitude": 34.2198123,
    "longitude": -119.0655388,
    "website_url": "https://www.tesla.com/findus/location/store/camarillo",
    "demo_drive_url": "https://www.tesla.com/drive?lat=34.2198123&lng=-119.0655388"
  },
  {
    "name": "Canoga Park-Topanga",
    "address": "6600 Topanga Canyon Blvd Suite 1049",
    "city": "Canoga Park",
    "state": "California",
    "zip_code": "91303",
    "phone": "(818) 703-0271",
    "latitude": 34.1911359,
    "longitude": -118.6024654,
    "website_url": "https://www.tesla.com/findus/location/store/canogaparktopanga",
    "demo_drive_url": "https://www.tesla.com/drive?lat=34.1911359&lng=-118.6024654"
  },
  {
    "name": "Carlsbad",
    "address": "3248 Lionshead Avenue",
    "city": "Carlsbad",
    "state": "California",
    "zip_code": "92010",
    "phone": "760-305-4041",
    "latitude": 33.133367,
    "longitude": -117.234576,
    "website_url": "https://www.tesla.com/findus/location/store/carlsbad",
    "demo_drive_url": "https://www.tesla.com/drive?lat=33.133367&lng=-117.234576"
  },
  {
    "name": "Chico-Huss",
    "address": "349 Huss Drive",
    "city": "Chico",
    "state": "California",
    "zip_code": "95928",
    "phone": "530-801-2318",
    "latitude": 39.70651,
    "longitude": -121.819925,
    "website_url": "https://www.tesla.com/findus/location/store/chicohuss",
    "demo_drive_url": "https://www.tesla.com/drive?lat=39.70651&lng=-121.819925"
  },
  {
    "name": "Chula Vista",
    "address": "2015 Birch Rd Suite 1015",
    "city": "Chula Vista",
    "state": "California",
    "zip_code": "91915",
    "phone": "(619) 205-4264",
    "latitude": 32.6235848,
    "longitude": -116.9674171,
    "website_url": "https://www.tesla.com/findus/location/store/chulavista",
    "demo_drive_url": "https://www.tesla.com/drive?lat=32.6235848&lng=-116.9674171"
  },
  {
    "name": "Colma",
    "address": "1500 Collins Ave",
    "city": "Colma",
    "state": "California",
    "zip_code": "94014",
    "phone": "650-488-2984",
    "latitude": 37.670637,
    "longitude": -122.463544,
    "website_url": "https://www.tesla.com/findus/location/store/colma",
    "demo_drive_url": "https://www.tesla.com/drive?lat=37.670637&lng=-122.463544"
  },
  {
    "name": "Corte Madera",
    "address": "201 Casa Buena Dr",
    "city": "Corte Madera",
    "state": "California",
    "zip_code": "94925",
    "phone": "415-413-9275",
    "latitude": 37.9242062,
    "longitude": -122.5145997,
    "website_url": "https://www.tesla.com/findus/location/store/cortemadera",
    "demo_drive_url": "https://www.tesla.com/drive?lat=37.9242062&lng=-122.5145997"
  },
  {
    "name": "Culver City Supercharger",
    "address": "6000 Sepulveda Blvd.",
    "city": "Culver City",
    "state": "California",
    "zip_code": "90230-6421",
    "phone": "",
    "latitude": 33.9854311,
    "longitude": -118.3933176,
    "website_url": "https://www.tesla.com/findus/location/store/culvercitysupercharger",
    "demo_drive_url": "https://www.tesla.com/drive?lat=33.9854311&lng=-118.3933176"
  },
  {
    "name": "Dublin",
    "address": "6701 Amador Plaza Road",
    "city": "Dublin",
    "state": "California",
    "zip_code": "94568",
    "phone": "925-361-1173",
    "latitude": 37.7027521,
    "longitude": -121.9248667,
    "website_url": "https://www.tesla.com/findus/location/store/dublin",
    "demo_drive_url": "https://www.tesla.com/drive?lat=37.7027521&lng=-121.9248667"
  },
  {
    "name": "Elk Grove Remote Demonstration Drive",
    "address": "8525 Bond Rd",
    "city": "Elk Grove",
    "state": "California",
    "zip_code": "95624",
    "phone": "",
    "latitude": 38.423845,
    "longitude": -121.388777,
    "website_url": "https://www.tesla.com/findus/location/store/elkgroveremotedemonstrationdrive",
    "demo_drive_url": "https://www.tesla.com/drive?lat=38.423845&lng=-121.388777"
  },
  {
    "name": "Encinitas",
    "address": "1302 Encinitas Blvd",
    "city": "Encinitas",
    "state": "California",
    "zip_code": "92024",
    "phone": "(760) 697-9348",
    "latitude": 33.0465631,
    "longitude": -117.2631315,
    "website_url": "https://www.tesla.com/findus/location/store/encinitas",
    "demo_drive_url": "https://www.tesla.com/drive?lat=33.0465631&lng=-117.2631315"
  },
  {
    "name": "Fremont",
    "address": "45500 Fremont Blvd",
    "city": "Fremont",
    "state": "California",
    "zip_code": "94538",
    "phone": "(510) 249-3500",
    "latitude": 37.4936059,
    "longitude": -121.9451429,
    "website_url": "https://www.tesla.com/findus/location/store/fremont",
    "demo_drive_url": "https://www.tesla.com/drive?lat=37.4936059&lng=-121.9451429"
  },
  {
    "name": "Fresno",
    "address": "711 W Palmdon Dr",
    "city": "Fresno",
    "state": "California",
    "zip_code": "93704",
    "phone": "(559) 492-4880",
    "latitude": 36.836137,
    "longitude": -119.805655,
    "website_url": "https://www.tesla.com/findus/location/store/fresno",
    "demo_drive_url": "https://www.tesla.com/drive?lat=36.836137&lng=-119.805655"
  },
  {
    "name": "Gilroy",
    "address": "500 Automall Dr",
    "city": "Gilroy",
    "state": "California",
    "zip_code": "95020",
    "phone": "408-427-0048",
    "latitude": 36.9966859,
    "longitude": -121.5576048,
    "website_url": "https://www.tesla.com/findus/location/store/gilroy",
    "demo_drive_url": "https://www.tesla.com/drive?lat=36.9966859&lng=-121.5576048"
  },
  {
    "name": "Gilroy Premium Outlets",
    "address": "Leavesley Rd",
    "city": "Gilroy",
    "state": "California",
    "zip_code": "95020-3647",
    "phone": "",
    "latitude": 37.0256162,
    "longitude": -121.5636695,
    "website_url": "https://www.tesla.com/findus/location/store/gilroypremiumoutlets",
    "demo_drive_url": "https://www.tesla.com/drive?lat=37.0256162&lng=-121.5636695"
  },
  {
    "name": "Glendale-Americana at Brand",
    "address": "539 Americana Way",
    "city": "Glendale",
    "state": "California",
    "zip_code": "91210",
    "phone": "818-254-7499",
    "latitude": 34.1437018,
    "longitude": -118.2574361,
    "website_url": "https://www.tesla.com/findus/location/store/glendaleamericanaatbrand",
    "demo_drive_url": "https://www.tesla.com/drive?lat=34.1437018&lng=-118.2574361"
  },
  {
    "name": "Irvine",
    "address": "2801 Barranca Pkwy",
    "city": "Irvine",
    "state": "California",
    "zip_code": "92606",
    "phone": "949-404-2989",
    "latitude": 33.6941017,
    "longitude": -117.8256818,
    "website_url": "https://www.tesla.com/findus/location/store/irvine",
    "demo_drive_url": "https://www.tesla.com/drive?lat=33.6941017&lng=-117.8256818"
  },
  {
    "name": "Long Beach",
    "address": "1800 E SPRING ST",
    "city": "LONG BEACH",
    "state": "California",
    "zip_code": "90755",
    "phone": "562-308-5439",
    "latitude": 33.8109409,
    "longitude": -118.1697739,
    "website_url": "https://www.tesla.com/findus/location/store/longbeach",
    "demo_drive_url": "https://www.tesla.com/drive?lat=33.8109409&lng=-118.1697739"
  },
  {
    "name": "Los Angeles - Century City",
    "address": "10250 Santa Monica Blvd Suite 1340",
    "city": "Los Angeles",
    "state": "California",
    "zip_code": "90067",
    "phone": "310-553-5767",
    "latitude": 34.058126,
    "longitude": -118.418214,
    "website_url": "https://www.tesla.com/findus/location/store/losangelescenturycity",
    "demo_drive_url": "https://www.tesla.com/drive?lat=34.058126&lng=-118.418214"
  },
  {
    "name": "Los Angeles-Centinela",
    "address": "5840 W Centinela Avenue",
    "city": "Los Angeles",
    "state": "California",
    "zip_code": "90045",
    "phone": "310-649-5463",
    "latitude": 33.97585,
    "longitude": -118.382923,
    "website_url": "https://www.tesla.com/findus/location/store/losangelescentinela",
    "demo_drive_url": "https://www.tesla.com/drive?lat=33.97585&lng=-118.382923"
  },
  {
    "name": "Malibu",
    "address": "23401 Civic Center Way Building #2 Suite 2D",
    "city": "Malibu",
    "state": "California",
    "zip_code": "90265",
    "phone": "3104944018",
    "latitude": 34.0369024,
    "longitude": -118.6864607,
    "website_url": "https://www.tesla.com/findus/location/store/malibu",
    "demo_drive_url": "https://www.tesla.com/drive?lat=34.0369024&lng=-118.6864607"
  },
  {
    "name": "Mission Viejo-Shops at Mission Viejo",
    "address": "820 THE SHOPS AT MISSION VIEJO",
    "city": "MISSION VIEJO",
    "state": "California",
    "zip_code": "92691",
    "phone": "9493476820",
    "latitude": 33.5582235,
    "longitude": -117.66913,
    "website_url": "https://www.tesla.com/findus/location/store/missionviejoshopsatmissionviejo",
    "demo_drive_url": "https://www.tesla.com/drive?lat=33.5582235&lng=-117.66913"
  },
  {
    "name": "Monterey",
    "address": "1901 1901 Del Monte Blvd Seaside, CA 93955",
    "city": "Seaside",
    "state": "California",
    "zip_code": "93955",
    "phone": "831-264-6896",
    "latitude": 36.6171238,
    "longitude": -121.8438038,
    "website_url": "https://www.tesla.com/findus/location/store/monterey",
    "demo_drive_url": "https://www.tesla.com/drive?lat=36.6171238&lng=-121.8438038"
  },
  {
    "name": "Napa Premium outlets",
    "address": "629 Factory Stores Drive",
    "city": "Napa",
    "state": "California",
    "zip_code": "94558",
    "phone": "",
    "latitude": 38.2948329,
    "longitude": -122.3027269,
    "website_url": "https://www.tesla.com/findus/location/store/napapremiumoutlets",
    "demo_drive_url": "https://www.tesla.com/drive?lat=38.2948329&lng=-122.3027269"
  },
  {
    "name": "Newport Beach-Fashion Island",
    "address": "367 Newport Center Dr",
    "city": "Newport Beach",
    "state": "California",
    "zip_code": "92660",
    "phone": "(949) 219-0040",
    "latitude": 33.6151888,
    "longitude": -117.8753716,
    "website_url": "https://www.tesla.com/findus/location/store/newportbeachfashionisland",
    "demo_drive_url": "https://www.tesla.com/drive?lat=33.6151888&lng=-117.8753716"
  },
  {
    "name": "North Hollywood",
    "address": "13005 Sherman Way",
    "city": "North Hollywood",
    "state": "California",
    "zip_code": "91605",
    "phone": "(747) 256-3468",
    "latitude": 34.2025104,
    "longitude": -118.4166509,
    "website_url": "https://www.tesla.com/findus/location/store/northhollywood",
    "demo_drive_url": "https://www.tesla.com/drive?lat=34.2025104&lng=-118.4166509"
  },
  {
    "name": "Salinas",
    "address": "796 Northridge Dr",
    "city": "Salinas",
    "state": "California",
    "zip_code": "93906",
    "phone": "",
    "latitude": 36.7207925,
    "longitude": -121.6573191,
    "website_url": "https://www.tesla.com/findus/location/store/salinas",
    "demo_drive_url": "https://www.tesla.com/drive?lat=36.7207925&lng=-121.6573191"
  },
  {
    "name": "Tesla - Norwalk",
    "address": "11729 Imperial Hwy.",
    "city": "Norwalk",
    "state": "California",
    "zip_code": "90650-2819",
    "phone": "(562) 356-5406",
    "latitude": 33.9182525,
    "longitude": -118.0828218,
    "website_url": "https://www.tesla.com/findus/location/store/teslanorwalk",
    "demo_drive_url": "https://www.tesla.com/drive?lat=33.9182525&lng=-118.0828218"
  },
  {
    "name": "Palm Springs",
    "address": "68080 Perez Road",
    "city": "Cathedral City",
    "state": "California",
    "zip_code": "92234",
    "phone": "760- 321-0821",
    "latitude": 33.786118,
    "longitude": -116.475114,
    "website_url": "https://www.tesla.com/findus/location/store/palmsprings",
    "demo_drive_url": "https://www.tesla.com/drive?lat=33.786118&lng=-116.475114"
  },
  {
    "name": "Palo Alto",
    "address": "4180 El Camino Real",
    "city": "Palo Alto",
    "state": "California",
    "zip_code": "94306",
    "phone": "650-681-5800",
    "latitude": 37.4108121,
    "longitude": -122.1245258,
    "website_url": "https://www.tesla.com/findus/location/store/paloalto",
    "demo_drive_url": "https://www.tesla.com/drive?lat=37.4108121&lng=-122.1245258"
  },
  {
    "name": "Palo Alto-Stanford Shopping Center",
    "address": "660 Stanford Shopping Center Suite 359B",
    "city": "Palo Alto",
    "state": "California",
    "zip_code": "94304",
    "phone": "650-798-0649",
    "latitude": 37.4421471,
    "longitude": -122.1729613,
    "website_url": "https://www.tesla.com/findus/location/store/paloaltostanfordshoppingcenter",
    "demo_drive_url": "https://www.tesla.com/drive?lat=37.4421471&lng=-122.1729613"
  },
  {
    "name": "Pasadena-Colorado Blvd",
    "address": "117 West Colorado Blvd",
    "city": "Pasadena",
    "state": "California",
    "zip_code": "91105",
    "phone": "626 356-7519",
    "latitude": 34.1460088,
    "longitude": -118.1529974,
    "website_url": "https://www.tesla.com/findus/location/store/pasadenacoloradoblvd",
    "demo_drive_url": "https://www.tesla.com/drive?lat=34.1460088&lng=-118.1529974"
  },
  {
    "name": "Promenade Temecula",
    "address": "40820 Winchester Rd.",
    "city": "Temecula",
    "state": "California",
    "zip_code": "92591-5525",
    "phone": "",
    "latitude": 33.5245692,
    "longitude": -117.1546001,
    "website_url": "https://www.tesla.com/findus/location/store/promenadetemecula",
    "demo_drive_url": "https://www.tesla.com/drive?lat=33.5245692&lng=-117.1546001"
  },
  {
    "name": "Riverside",
    "address": "7920 Lindbergh Drive",
    "city": "Riverside",
    "state": "California",
    "zip_code": "92508",
    "phone": "951-429-6030",
    "latitude": 33.9060972,
    "longitude": -117.3250245,
    "website_url": "https://www.tesla.com/findus/location/store/riverside",
    "demo_drive_url": "https://www.tesla.com/drive?lat=33.9060972&lng=-117.3250245"
  },
  {
    "name": "Rocklin",
    "address": "4361 Granite Drive",
    "city": "Rocklin",
    "state": "California",
    "zip_code": "95677",
    "phone": "916-652-7740",
    "latitude": 38.800537,
    "longitude": -121.210485,
    "website_url": "https://www.tesla.com/findus/location/store/rocklin",
    "demo_drive_url": "https://www.tesla.com/drive?lat=38.800537&lng=-121.210485"
  },
  {
    "name": "Sacramento",
    "address": "2535 Arden Way",
    "city": "Sacramento",
    "state": "California",
    "zip_code": "95825",
    "phone": "916-830-2191",
    "latitude": 38.5966464,
    "longitude": -121.4027029,
    "website_url": "https://www.tesla.com/findus/location/store/sacramento",
    "demo_drive_url": "https://www.tesla.com/drive?lat=38.5966464&lng=-121.4027029"
  },
  {
    "name": "San Diego - Miramar",
    "address": "9250 Trade Pl",
    "city": "San Diego",
    "state": "California",
    "zip_code": "92121",
    "phone": "858-271-5100",
    "latitude": 32.8920334,
    "longitude": -117.1549447,
    "website_url": "https://www.tesla.com/findus/location/store/sandiegomiramar",
    "demo_drive_url": "https://www.tesla.com/drive?lat=32.8920334&lng=-117.1549447"
  },
  {
    "name": "San Diego-UTC",
    "address": "4545 La Jolla Village Dr C17",
    "city": "San Diego",
    "state": "California",
    "zip_code": "92122",
    "phone": "858.558.1555",
    "latitude": 32.8712551,
    "longitude": -117.210474,
    "website_url": "https://www.tesla.com/findus/location/store/sandiegoutc",
    "demo_drive_url": "https://www.tesla.com/drive?lat=32.8712551&lng=-117.210474"
  },
  {
    "name": "San Francisco - Van Ness",
    "address": "999 Van Ness Avenue",
    "city": "San Francisco",
    "state": "California",
    "zip_code": "94109",
    "phone": "415-268-9487",
    "latitude": 37.784428,
    "longitude": -122.421806,
    "website_url": "https://www.tesla.com/findus/location/store/sanfranciscovanness",
    "demo_drive_url": "https://www.tesla.com/drive?lat=37.784428&lng=-122.421806"
  },
  {
    "name": "San Jose-Santana Row",
    "address": "333 Santana Row Suite 1015",
    "city": "San Jose",
    "state": "California",
    "zip_code": "95128",
    "phone": "(408) 249-2815",
    "latitude": 37.322453,
    "longitude": -121.947954,
    "website_url": "https://www.tesla.com/findus/location/store/sanjosesantanarow",
    "demo_drive_url": "https://www.tesla.com/drive?lat=37.322453&lng=-121.947954"
  },
  {
    "name": "San Luis Obispo",
    "address": "1381 CALLE JOAQUIN",
    "city": "SAN LUIS OBISPO",
    "state": "California",
    "zip_code": "93405",
    "phone": "(805) 242-7173",
    "latitude": 35.2499324,
    "longitude": -120.68058,
    "website_url": "https://www.tesla.com/findus/location/store/sanluisobispo",
    "demo_drive_url": "https://www.tesla.com/drive?lat=35.2499324&lng=-120.68058"
  },
  {
    "name": "Santa Barbara",
    "address": "400 Hitchcock Way",
    "city": "Santa Barbara",
    "state": "California",
    "zip_code": "93105",
    "phone": "805-770-6090",
    "latitude": 34.433626,
    "longitude": -119.74541,
    "website_url": "https://www.tesla.com/findus/location/store/santabarbara",
    "demo_drive_url": "https://www.tesla.com/drive?lat=34.433626&lng=-119.74541"
  },
  {
    "name": "Santa Clarita",
    "address": "24050 Creekside Rd",
    "city": "Santa Clarita",
    "state": "California",
    "zip_code": "91355",
    "phone": "(661) 600-0080",
    "latitude": 34.4188888,
    "longitude": -118.5558703,
    "website_url": "https://www.tesla.com/findus/location/store/santaclarita",
    "demo_drive_url": "https://www.tesla.com/drive?lat=34.4188888&lng=-118.5558703"
  },
  {
    "name": "Santa Monica Place",
    "address": "395 Santa Monica Place #120",
    "city": "Santa Monica",
    "state": "California",
    "zip_code": "90401",
    "phone": "310-395-8333",
    "latitude": 34.013819,
    "longitude": -118.494028,
    "website_url": "https://www.tesla.com/findus/location/store/santamonicaplace",
    "demo_drive_url": "https://www.tesla.com/drive?lat=34.013819&lng=-118.494028"
  },
  {
    "name": "Sherman Oaks - Fashion Square Mall",
    "address": "14006 Riverside Dr. Space 78",
    "city": "Sherman Oaks",
    "state": "California",
    "zip_code": "91423",
    "phone": "818-464-1459",
    "latitude": 34.156753,
    "longitude": -118.437088,
    "website_url": "https://www.tesla.com/findus/location/store/shermanoaksfashionsquaremall",
    "demo_drive_url": "https://www.tesla.com/drive?lat=34.156753&lng=-118.437088"
  },
  {
    "name": "Stockton",
    "address": "3131 Auto Center Circle",
    "city": "Stockton",
    "state": "California",
    "zip_code": "95212",
    "phone": "(209) 390-0090",
    "latitude": 38.0197186,
    "longitude": -121.2761377,
    "website_url": "https://www.tesla.com/findus/location/store/stockton",
    "demo_drive_url": "https://www.tesla.com/drive?lat=38.0197186&lng=-121.2761377"
  },
  {
    "name": "Sunnyvale",
    "address": "750 El Camino Real",
    "city": "Sunnyvale",
    "state": "California",
    "zip_code": "94087",
    "phone": "408-739-2034",
    "latitude": 37.357529,
    "longitude": -122.020006,
    "website_url": "https://www.tesla.com/findus/location/store/sunnyvale",
    "demo_drive_url": "https://www.tesla.com/drive?lat=37.357529&lng=-122.020006"
  },
  {
    "name": "Temecula-Rancho Way",
    "address": "43191 Rancho Way",
    "city": "Temecula",
    "state": "California",
    "zip_code": "92590",
    "phone": "951-514-4971",
    "latitude": 33.5036971,
    "longitude": -117.1608121,
    "website_url": "https://www.tesla.com/findus/location/store/temecularanchoway",
    "demo_drive_url": "https://www.tesla.com/drive?lat=33.5036971&lng=-117.1608121"
  },
  {
    "name": "Tesla - Anaheim - Tesla Center",
    "address": "5635 E La Palma Ave",
    "city": "Anaheim",
    "state": "California",
    "zip_code": "92807",
    "phone": "(714) 696-3004",
    "latitude": 33.861492,
    "longitude": -117.7920325,
    "website_url": "https://www.tesla.com/findus/location/store/teslaanaheimteslacenter",
    "demo_drive_url": "https://www.tesla.com/drive?lat=33.861492&lng=-117.7920325"
  },
  {
    "name": "Tesla - Thousand Oaks",
    "address": "2000 Corporate Center Dr",
    "city": "Thousand Oaks",
    "state": "California",
    "zip_code": "91320-1400",
    "phone": "(805) 214-5072",
    "latitude": 34.1969819,
    "longitude": -118.9228358,
    "website_url": "https://www.tesla.com/findus/location/store/teslathousandoaks",
    "demo_drive_url": "https://www.tesla.com/drive?lat=34.1969819&lng=-118.9228358"
  },
  {
    "name": "Tesla Costa Mesa",
    "address": "3020 Pullman Street",
    "city": "Costa Mesa",
    "state": "California",
    "zip_code": "92626",
    "phone": "714-641-3949",
    "latitude": 33.67398,
    "longitude": -117.882377,
    "website_url": "https://www.tesla.com/findus/location/store/teslacostamesa",
    "demo_drive_url": "https://www.tesla.com/drive?lat=33.67398&lng=-117.882377"
  },
  {
    "name": "Tesla Los Cerritos Center Pop-Up",
    "address": "239 Los Cerritos Center",
    "city": "Cerritos",
    "state": "California",
    "zip_code": "90703",
    "phone": "(562) 402-7467",
    "latitude": 33.8613973,
    "longitude": -118.0932468,
    "website_url": "https://www.tesla.com/findus/location/store/teslaloscerritoscenterpopup",
    "demo_drive_url": "https://www.tesla.com/drive?lat=33.8613973&lng=-118.0932468"
  },
  {
    "name": "Tesla Los Gatos",
    "address": "15500 Los Gatos Blvd",
    "city": "Los Gatos",
    "state": "California",
    "zip_code": "95032",
    "phone": "(408) 827-0065",
    "latitude": 37.2427983,
    "longitude": -121.9588203,
    "website_url": "https://www.tesla.com/findus/location/store/teslalosgatos",
    "demo_drive_url": "https://www.tesla.com/drive?lat=37.2427983&lng=-121.9588203"
  },
  {
    "name": "Tesla North Sacramento Pre-Owned Sales Center",
    "address": "3650 Dudley Blvd",
    "city": "McClellan Park",
    "state": "California",
    "zip_code": "95652",
    "phone": "",
    "latitude": 38.646242,
    "longitude": -121.4092914,
    "website_url": "https://www.tesla.com/findus/location/store/teslanorthsacramentopreownedsalescenter",
    "demo_drive_url": "https://www.tesla.com/drive?lat=38.646242&lng=-121.4092914"
  },
  {
    "name": "Torrance",
    "address": "2560 W. 237th St",
    "city": "Torrance",
    "state": "California",
    "zip_code": "90505",
    "phone": "310-517-9688",
    "latitude": 33.8113302,
    "longitude": -118.3317427,
    "website_url": "https://www.tesla.com/findus/location/store/torrance",
    "demo_drive_url": "https://www.tesla.com/drive?lat=33.8113302&lng=-118.3317427"
  },
  {
    "name": "Torrance-Del Amo Mall",
    "address": "3525 W Carson St. Space 419",
    "city": "Torrance",
    "state": "California",
    "zip_code": "90503",
    "phone": "424-2822994",
    "latitude": 33.83296,
    "longitude": -118.350753,
    "website_url": "https://www.tesla.com/findus/location/store/torrancedelamomall",
    "demo_drive_url": "https://www.tesla.com/drive?lat=33.83296&lng=-118.350753"
  },
  {
    "name": "Upland",
    "address": "1018 E 20TH ST",
    "city": "UPLAND",
    "state": "California",
    "zip_code": "91784",
    "phone": "909-244-1884",
    "latitude": 34.1356484,
    "longitude": -117.6389922,
    "website_url": "https://www.tesla.com/findus/location/store/upland",
    "demo_drive_url": "https://www.tesla.com/drive?lat=34.1356484&lng=-117.6389922"
  },
  {
    "name": "Vallejo",
    "address": "1001 Admiral Callaghan Ln",
    "city": "Vallejo",
    "state": "California",
    "zip_code": "94591",
    "phone": "(707) 917-4719",
    "latitude": 38.1354929,
    "longitude": -122.2200951,
    "website_url": "https://www.tesla.com/findus/location/store/vallejo",
    "demo_drive_url": "https://www.tesla.com/drive?lat=38.1354929&lng=-122.2200951"
  },
  {
    "name": "Walnut Creek-Broadway Plaza",
    "address": "1246 Broadway Plaza Suite 1094",
    "city": "Walnut Creek",
    "state": "California",
    "zip_code": "94596",
    "phone": "(925) 210-1792",
    "latitude": 37.896195,
    "longitude": -122.058112,
    "website_url": "https://www.tesla.com/findus/location/store/walnutcreekbroadwayplaza",
    "demo_drive_url": "https://www.tesla.com/drive?lat=37.896195&lng=-122.058112"
  },
  {
    "name": "West Covina",
    "address": "1932 E GARVEY AVE S",
    "city": "West Covina",
    "state": "California",
    "zip_code": "91791",
    "phone": "(626) 646-1117",
    "latitude": 34.0711137,
    "longitude": -117.903924,
    "website_url": "https://www.tesla.com/findus/location/store/westcovina",
    "demo_drive_url": "https://www.tesla.com/drive?lat=34.0711137&lng=-117.903924"
  },
  {
    "name": "West Los Angeles-Santa Monica Blvd",
    "address": "11163 Santa Monica Boulevard",
    "city": "Los Angeles",
    "state": "California",
    "zip_code": "90025",
    "phone": "310-473-8337",
    "latitude": 34.047526,
    "longitude": -118.445593,
    "website_url": "https://www.tesla.com/findus/location/store/westlosangelessantamonicablvd",
    "demo_drive_url": "https://www.tesla.com/drive?lat=34.047526&lng=-118.445593"
  },
  {
    "name": "Aurora",
    "address": "11951 E 33rd Ave",
    "city": "Aurora",
    "state": "Colorado",
    "zip_code": "80010",
    "phone": "7205594589",
    "latitude": 39.7643657,
    "longitude": -104.8492014,
    "website_url": "https://www.tesla.com/findus/location/store/aurora",
    "demo_drive_url": "https://www.tesla.com/drive?lat=39.7643657&lng=-104.8492014"
  },
  {
    "name": "Colorado Springs",
    "address": "1323 Motor City Dr",
    "city": "Colorado Springs",
    "state": "Colorado",
    "zip_code": "80905",
    "phone": "7192576988",
    "latitude": 38.815251,
    "longitude": -104.830295,
    "website_url": "https://www.tesla.com/findus/location/store/coloradosprings",
    "demo_drive_url": "https://www.tesla.com/drive?lat=38.815251&lng=-104.830295"
  },
  {
    "name": "Gypsum",
    "address": "550 Plane St.",
    "city": "Gypsum",
    "state": "Colorado",
    "zip_code": "81637",
    "phone": "(970) 687-0050",
    "latitude": 39.6372817,
    "longitude": -106.9203594,
    "website_url": "https://www.tesla.com/findus/location/store/gypsum",
    "demo_drive_url": "https://www.tesla.com/drive?lat=39.6372817&lng=-106.9203594"
  },
  {
    "name": "Littleton-Broadway",
    "address": "5700 S Broadway",
    "city": "Littleton",
    "state": "Colorado",
    "zip_code": "80121",
    "phone": "(303) 632-4200",
    "latitude": 39.6126591,
    "longitude": -104.9872324,
    "website_url": "https://www.tesla.com/findus/location/store/littletonbroadway",
    "demo_drive_url": "https://www.tesla.com/drive?lat=39.6126591&lng=-104.9872324"
  },
  {
    "name": "Lone Tree-Park Meadows",
    "address": "8401 Park Meadows Center Dr Suite #1650",
    "city": "Lone Tree",
    "state": "Colorado",
    "zip_code": "80124",
    "phone": "(303) 792-3450",
    "latitude": 39.5610436,
    "longitude": -104.8756401,
    "website_url": "https://www.tesla.com/findus/location/store/lonetreeparkmeadows",
    "demo_drive_url": "https://www.tesla.com/drive?lat=39.5610436&lng=-104.8756401"
  },
  {
    "name": "Loveland",
    "address": "1606 N Lincoln Ave",
    "city": "Loveland",
    "state": "Colorado",
    "zip_code": "80538",
    "phone": "970-541-6691",
    "latitude": 40.4098982,
    "longitude": -105.0728223,
    "website_url": "https://www.tesla.com/findus/location/store/loveland",
    "demo_drive_url": "https://www.tesla.com/drive?lat=40.4098982&lng=-105.0728223"
  },
  {
    "name": "Superior",
    "address": "2 S Marshall Rd",
    "city": "Superior",
    "state": "Colorado",
    "zip_code": "80027",
    "phone": "(720) 302-9952",
    "latitude": 39.9549413,
    "longitude": -105.1649426,
    "website_url": "https://www.tesla.com/findus/location/store/superior",
    "demo_drive_url": "https://www.tesla.com/drive?lat=39.9549413&lng=-105.1649426"
  },
  {
    "name": "Milford",
    "address": "881 Boston Post Rd",
    "city": "Milford",
    "state": "Connecticut",
    "zip_code": "06460",
    "phone": "203-701-5700",
    "latitude": 41.231376,
    "longitude": -73.052192,
    "website_url": "https://www.tesla.com/findus/location/store/milford",
    "demo_drive_url": "https://www.tesla.com/drive?lat=41.231376&lng=-73.052192"
  },
  {
    "name": "Mohegan Sun",
    "address": "1 Mohegan Sun Blvd",
    "city": "Uncasville",
    "state": "Connecticut",
    "zip_code": "06382",
    "phone": "(860) 383-1101",
    "latitude": 41.4917972,
    "longitude": -72.0903866,
    "website_url": "https://www.tesla.com/findus/location/store/mohegansun",
    "demo_drive_url": "https://www.tesla.com/drive?lat=41.4917972&lng=-72.0903866"
  },
  {
    "name": "Stamford",
    "address": "106 Commerce Rd",
    "city": "Stamford",
    "state": "Connecticut",
    "zip_code": "06902",
    "phone": "(203) 658-0581",
    "latitude": 41.0465665,
    "longitude": -73.565018,
    "website_url": "https://www.tesla.com/findus/location/store/stamford",
    "demo_drive_url": "https://www.tesla.com/drive?lat=41.0465665&lng=-73.565018"
  },
  {
    "name": "Christiana Mall",
    "address": "132 Christiana Mall Space 1401",
    "city": "Newark",
    "state": "Delaware",
    "zip_code": "19702",
    "phone": "302-533-3895",
    "latitude": 39.679184,
    "longitude": -75.652264,
    "website_url": "https://www.tesla.com/findus/location/store/christianamall",
    "demo_drive_url": "https://www.tesla.com/drive?lat=39.679184&lng=-75.652264"
  },
  {
    "name": "Washington DC",
    "address": "3307 M St NW",
    "city": "Washington",
    "state": "District Of Columbia",
    "zip_code": "20007",
    "phone": "(202) 916-3936",
    "latitude": 38.9052344,
    "longitude": -77.0666818,
    "website_url": "https://www.tesla.com/findus/location/store/washingtondc",
    "demo_drive_url": "https://www.tesla.com/drive?lat=38.9052344&lng=-77.0666818"
  },
  {
    "name": "Aventura-Aventura Mall",
    "address": "19565 Biscayne Blvd #1948",
    "city": "Aventura",
    "state": "Florida",
    "zip_code": "33180",
    "phone": "(305) 914-3072",
    "latitude": 25.9583338,
    "longitude": -80.1424004,
    "website_url": "https://www.tesla.com/findus/location/store/aventuraaventuramall",
    "demo_drive_url": "https://www.tesla.com/drive?lat=25.9583338&lng=-80.1424004"
  },
  {
    "name": "Boca Raton",
    "address": "6000 Glades Road",
    "city": "Boca Raton",
    "state": "Florida",
    "zip_code": "33431",
    "phone": "",
    "latitude": 26.3643454,
    "longitude": -80.1335081,
    "website_url": "https://www.tesla.com/findus/location/store/bocaraton",
    "demo_drive_url": "https://www.tesla.com/drive?lat=26.3643454&lng=-80.1335081"
  },
  {
    "name": "Clermont",
    "address": "16775 State Road 50.",
    "city": "Clermont",
    "state": "Florida",
    "zip_code": "34711",
    "phone": "(321) 221-6422",
    "latitude": 28.54791,
    "longitude": -81.67682,
    "website_url": "https://www.tesla.com/findus/location/store/clermont",
    "demo_drive_url": "https://www.tesla.com/drive?lat=28.54791&lng=-81.67682"
  },
  {
    "name": "Coral Gables Miami",
    "address": "3851 Bird Road",
    "city": "Miami",
    "state": "Florida",
    "zip_code": "33146",
    "phone": "786-804-6926",
    "latitude": 25.735192,
    "longitude": -80.256911,
    "website_url": "https://www.tesla.com/findus/location/store/coralgablesmiami",
    "demo_drive_url": "https://www.tesla.com/drive?lat=25.735192&lng=-80.256911"
  },
  {
    "name": "Delray Beach",
    "address": "3000 S Federal Hwy",
    "city": "Delray Beach",
    "state": "Florida",
    "zip_code": "33483",
    "phone": "305-459-8660",
    "latitude": 26.4267842,
    "longitude": -80.073725,
    "website_url": "https://www.tesla.com/findus/location/store/delraybeach",
    "demo_drive_url": "https://www.tesla.com/drive?lat=26.4267842&lng=-80.073725"
  },
  {
    "name": "Fort Lauderdale-Federal Highway",
    "address": "2829 N. Federal Highway",
    "city": "Fort Lauderdale",
    "state": "Florida",
    "zip_code": "33306",
    "phone": "754-816-3069",
    "latitude": 26.1626399,
    "longitude": -80.1169462,
    "website_url": "https://www.tesla.com/findus/location/store/fortlauderdalefederalhighway",
    "demo_drive_url": "https://www.tesla.com/drive?lat=26.1626399&lng=-80.1169462"
  },
  {
    "name": "Fort Myers",
    "address": "8900 Colonial Center Dr",
    "city": "Fort Myers",
    "state": "Florida",
    "zip_code": "33905",
    "phone": "(239) 895-0626",
    "latitude": 26.613947,
    "longitude": -81.810224,
    "website_url": "https://www.tesla.com/findus/location/store/fortmyers",
    "demo_drive_url": "https://www.tesla.com/drive?lat=26.613947&lng=-81.810224"
  },
  {
    "name": "Gainesville",
    "address": "2501 N Main St",
    "city": "Gainesville",
    "state": "Florida",
    "zip_code": "32609",
    "phone": "(352) 420-8079",
    "latitude": 29.6755269,
    "longitude": -82.3200499,
    "website_url": "https://www.tesla.com/findus/location/store/gainesville",
    "demo_drive_url": "https://www.tesla.com/drive?lat=29.6755269&lng=-82.3200499"
  },
  {
    "name": "Tesla - Tampa",
    "address": "2223 N Westshore Blvd Suite 128",
    "city": "Tampa",
    "state": "Florida",
    "zip_code": "33607",
    "phone": "813.393.3820",
    "latitude": 27.9646682,
    "longitude": -82.5206435,
    "website_url": "https://www.tesla.com/findus/location/store/teslatampa",
    "demo_drive_url": "https://www.tesla.com/drive?lat=27.9646682&lng=-82.5206435"
  },
  {
    "name": "Jacksonville",
    "address": "11650 Abess Blvd",
    "city": "Jacksonville",
    "state": "Florida",
    "zip_code": "32225",
    "phone": "904-924-6442",
    "latitude": 30.3236219,
    "longitude": -81.5014571,
    "website_url": "https://www.tesla.com/findus/location/store/jacksonville",
    "demo_drive_url": "https://www.tesla.com/drive?lat=30.3236219&lng=-81.5014571"
  },
  {
    "name": "Kissimmee",
    "address": "2935 N Orange Blossom Trail",
    "city": "Kissimmee",
    "state": "Florida",
    "zip_code": "34744",
    "phone": "(407) 552-0106",
    "latitude": 28.3352865,
    "longitude": -81.4029987,
    "website_url": "https://www.tesla.com/findus/location/store/kissimmee",
    "demo_drive_url": "https://www.tesla.com/drive?lat=28.3352865&lng=-81.4029987"
  },
  {
    "name": "Merritt Island",
    "address": "1545 E Merritt Island Causeway",
    "city": "Merritt Island",
    "state": "Florida",
    "zip_code": "32952",
    "phone": "321-456-8002",
    "latitude": 28.3563464,
    "longitude": -80.6693214,
    "website_url": "https://www.tesla.com/findus/location/store/merrittisland",
    "demo_drive_url": "https://www.tesla.com/drive?lat=28.3563464&lng=-80.6693214"
  },
  {
    "name": "Miami Gardens",
    "address": "20850 Northwest 2nd Ave",
    "city": "Miami Gardens",
    "state": "Florida",
    "zip_code": "33169",
    "phone": "786 654 5885",
    "latitude": 25.9677585,
    "longitude": -80.2065534,
    "website_url": "https://www.tesla.com/findus/location/store/miamigardens",
    "demo_drive_url": "https://www.tesla.com/drive?lat=25.9677585&lng=-80.2065534"
  },
  {
    "name": "Miami-Dadeland",
    "address": "7535 N Kendall Dr #2420",
    "city": "Miami",
    "state": "Florida",
    "zip_code": "33156",
    "phone": "(786) 268-7767",
    "latitude": 25.689606,
    "longitude": -80.312492,
    "website_url": "https://www.tesla.com/findus/location/store/miamidadeland",
    "demo_drive_url": "https://www.tesla.com/drive?lat=25.689606&lng=-80.312492"
  },
  {
    "name": "Miami-Design District",
    "address": "4039 NE 1st Ave",
    "city": "Miami",
    "state": "Florida",
    "zip_code": "33137",
    "phone": "(305) 459-8658",
    "latitude": 25.814317,
    "longitude": -80.193706,
    "website_url": "https://www.tesla.com/findus/location/store/miamidesigndistrict",
    "demo_drive_url": "https://www.tesla.com/drive?lat=25.814317&lng=-80.193706"
  },
  {
    "name": "Miami SW 8th Street Supercharger",
    "address": "701 S Miami Ave",
    "city": "Miami",
    "state": "Florida",
    "zip_code": "33130-1946",
    "phone": "",
    "latitude": 25.7673386,
    "longitude": -80.1932669,
    "website_url": "https://www.tesla.com/findus/location/store/miamisw8thstreetsupercharger",
    "demo_drive_url": "https://www.tesla.com/drive?lat=25.7673386&lng=-80.1932669"
  },
  {
    "name": "Naples-Waterside Shops",
    "address": "5415 Tamiami Trail N. H-2",
    "city": "Naples",
    "state": "Florida",
    "zip_code": "34108",
    "phone": "",
    "latitude": 26.213349,
    "longitude": -81.802654,
    "website_url": "https://www.tesla.com/findus/location/store/napleswatersideshops",
    "demo_drive_url": "https://www.tesla.com/drive?lat=26.213349&lng=-81.802654"
  },
  {
    "name": "Orlando",
    "address": "2214 John Young Pkwy",
    "city": "Orlando",
    "state": "Florida",
    "zip_code": "32804",
    "phone": "407-533-4117",
    "latitude": 28.573101,
    "longitude": -81.4174589,
    "website_url": "https://www.tesla.com/findus/location/store/orlando",
    "demo_drive_url": "https://www.tesla.com/drive?lat=28.573101&lng=-81.4174589"
  },
  {
    "name": "Orlando - Florida Mall Showroom",
    "address": "8001 S Orange Blossom Trail Space 1280A",
    "city": "Orlando",
    "state": "Florida",
    "zip_code": "32809",
    "phone": "4072043985",
    "latitude": 28.445935,
    "longitude": -81.394502,
    "website_url": "https://www.tesla.com/findus/location/store/orlandofloridamallshowroom",
    "demo_drive_url": "https://www.tesla.com/drive?lat=28.445935&lng=-81.394502"
  },
  {
    "name": "Orlando-6855 Lee Vista Blvd",
    "address": "6855 Lee Vista Blvd",
    "city": "Orlando",
    "state": "Florida",
    "zip_code": "32822",
    "phone": "(689) 256-2518",
    "latitude": 28.46707,
    "longitude": -81.28936,
    "website_url": "https://www.tesla.com/findus/location/store/orlando6855leevistablvd",
    "demo_drive_url": "https://www.tesla.com/drive?lat=28.46707&lng=-81.28936"
  },
  {
    "name": "Sarasota",
    "address": "135 University Town Center Dr",
    "city": "Sarasota",
    "state": "Florida",
    "zip_code": "34243",
    "phone": "(941) 413-4196",
    "latitude": 27.3877527,
    "longitude": -82.4516714,
    "website_url": "https://www.tesla.com/findus/location/store/sarasota",
    "demo_drive_url": "https://www.tesla.com/drive?lat=27.3877527&lng=-82.4516714"
  },
  {
    "name": "St. Petersburg",
    "address": "4601 34TH ST N",
    "city": "Saint Petersburg",
    "state": "Florida",
    "zip_code": "33714",
    "phone": "(727) 655-6552",
    "latitude": 27.8141537,
    "longitude": -82.6785525,
    "website_url": "https://www.tesla.com/findus/location/store/st.petersburg",
    "demo_drive_url": "https://www.tesla.com/drive?lat=27.8141537&lng=-82.6785525"
  },
  {
    "name": "Tallahassee",
    "address": "2412 W Tennessee St",
    "city": "Tallahassee",
    "state": "Florida",
    "zip_code": "32304",
    "phone": "(850) 354-7586",
    "latitude": 30.4484925,
    "longitude": -84.3271686,
    "website_url": "https://www.tesla.com/findus/location/store/tallahassee",
    "demo_drive_url": "https://www.tesla.com/drive?lat=30.4484925&lng=-84.3271686"
  },
  {
    "name": "Tampa",
    "address": "11945 North Florida Avenue",
    "city": "Tampa",
    "state": "Florida",
    "zip_code": "33612",
    "phone": "Store & Service:(813) 496-3039",
    "latitude": 28.057142,
    "longitude": -82.458289,
    "website_url": "https://www.tesla.com/findus/location/store/tampa",
    "demo_drive_url": "https://www.tesla.com/drive?lat=28.057142&lng=-82.458289"
  },
  {
    "name": "Doral",
    "address": "9950 NW 25TH ST",
    "city": "DORAL",
    "state": "Florida",
    "zip_code": "33172",
    "phone": "(786) 582-3750",
    "latitude": 25.795779,
    "longitude": -80.357621,
    "website_url": "https://www.tesla.com/findus/location/store/doral",
    "demo_drive_url": "https://www.tesla.com/drive?lat=25.795779&lng=-80.357621"
  },
  {
    "name": "Naples",
    "address": "4555 Radio Rd",
    "city": "Naples",
    "state": "Florida",
    "zip_code": "34104",
    "phone": "",
    "latitude": 26.1539081,
    "longitude": -81.7547313,
    "website_url": "https://www.tesla.com/findus/location/store/naples",
    "demo_drive_url": "https://www.tesla.com/drive?lat=26.1539081&lng=-81.7547313"
  },
  {
    "name": "Tesla Paddock Mall Pop Up",
    "address": "3100 SW College Rd",
    "city": "Ocala",
    "state": "Florida",
    "zip_code": "34474",
    "phone": "(352) 420-8079",
    "latitude": 29.1590819,
    "longitude": -82.1730628,
    "website_url": "https://www.tesla.com/findus/location/store/teslapaddockmallpopup",
    "demo_drive_url": "https://www.tesla.com/drive?lat=29.1590819&lng=-82.1730628"
  },
  {
    "name": "Pensacola",
    "address": "312 E 9 Mile Rd",
    "city": "Pensacola",
    "state": "Florida",
    "zip_code": "32514",
    "phone": "(850) 876-7858",
    "latitude": 30.53425,
    "longitude": -87.25911,
    "website_url": "https://www.tesla.com/findus/location/store/pensacola",
    "demo_drive_url": "https://www.tesla.com/drive?lat=30.53425&lng=-87.25911"
  },
  {
    "name": "Tesla Town Center at Boca Pop-up",
    "address": "6000 Glades Rd",
    "city": "Boca Raton",
    "state": "Florida",
    "zip_code": "33431",
    "phone": "(561) 368-6000",
    "latitude": 26.3625607,
    "longitude": -80.1326512,
    "website_url": "https://www.tesla.com/findus/location/store/teslatowncenteratbocapopup",
    "demo_drive_url": "https://www.tesla.com/drive?lat=26.3625607&lng=-80.1326512"
  },
  {
    "name": "West Palm Beach",
    "address": "5544 Okeechobee Boulevard",
    "city": "West Palm Beach",
    "state": "Florida",
    "zip_code": "33417",
    "phone": "(561) 841-9281",
    "latitude": 26.706516,
    "longitude": -80.128119,
    "website_url": "https://www.tesla.com/findus/location/store/westpalmbeach",
    "demo_drive_url": "https://www.tesla.com/drive?lat=26.706516&lng=-80.128119"
  },
  {
    "name": "Austin Ridgepoint",
    "address": "2323 RIDGEPOINT DR",
    "city": "AUSTIN",
    "state": "Texas",
    "zip_code": "78754",
    "phone": "(737) 800-5731",
    "latitude": 30.3290182,
    "longitude": -97.6755978,
    "website_url": "https://www.tesla.com/findus/location/store/austinridgepoint",
    "demo_drive_url": "https://www.tesla.com/drive?lat=30.3290182&lng=-97.6755978"
  },
  {
    "name": "Austin-500 E St Elmo Rd",
    "address": "500 E St Elmo Rd",
    "city": "Austin",
    "state": "Texas",
    "zip_code": "78745",
    "phone": "737-717-8919",
    "latitude": 30.2153692,
    "longitude": -97.7616189,
    "website_url": "https://www.tesla.com/findus/location/store/austin500estelmord",
    "demo_drive_url": "https://www.tesla.com/drive?lat=30.2153692&lng=-97.7616189"
  },
  {
    "name": "Brownsville",
    "address": "7045 Old Highway 77",
    "city": "Olmito",
    "state": "Texas",
    "zip_code": "78575",
    "phone": "956-589-7952",
    "latitude": 26.012567,
    "longitude": -97.5313576,
    "website_url": "https://www.tesla.com/findus/location/store/brownsville",
    "demo_drive_url": "https://www.tesla.com/drive?lat=26.012567&lng=-97.5313576"
  },
  {
    "name": "Corpus Christi-South Padre Island Drive",
    "address": "3605 S Padre Island Dr",
    "city": "Corpus Christi",
    "state": "Texas",
    "zip_code": "78415",
    "phone": "361-360-7164",
    "latitude": 27.724281,
    "longitude": -97.405736,
    "website_url": "https://www.tesla.com/findus/location/store/corpuschristisouthpadreislanddrive",
    "demo_drive_url": "https://www.tesla.com/drive?lat=27.724281&lng=-97.405736"
  },
  {
    "name": "Dallas",
    "address": "6500 Cedar Springs Road",
    "city": "Dallas",
    "state": "Texas",
    "zip_code": "75235",
    "phone": "214-736-0587",
    "latitude": 32.8323971,
    "longitude": -96.8375432,
    "website_url": "https://www.tesla.com/findus/location/store/dallas",
    "demo_drive_url": "https://www.tesla.com/drive?lat=32.8323971&lng=-96.8375432"
  },
  {
    "name": "Dallas-Northpark Center",
    "address": "8687 North Central Expwy Suite #1027",
    "city": "Dallas",
    "state": "Texas",
    "zip_code": "75225",
    "phone": "469-232-9270",
    "latitude": 32.8677639,
    "longitude": -96.7723289,
    "website_url": "https://www.tesla.com/findus/location/store/dallasnorthparkcenter",
    "demo_drive_url": "https://www.tesla.com/drive?lat=32.8677639&lng=-96.7723289"
  },
  {
    "name": "El Paso",
    "address": "7825 Helen of Troy Dr",
    "city": "El Paso",
    "state": "Texas",
    "zip_code": "79912",
    "phone": "(915)352-2852",
    "latitude": 31.8765065,
    "longitude": -106.5770986,
    "website_url": "https://www.tesla.com/findus/location/store/elpaso",
    "demo_drive_url": "https://www.tesla.com/drive?lat=31.8765065&lng=-106.5770986"
  },
  {
    "name": "Fort Worth - 5812 N Fwy",
    "address": "5812 N Fwy",
    "city": "Fort Worth",
    "state": "Texas",
    "zip_code": "76137",
    "phone": "(817) 806-0698",
    "latitude": 32.85136,
    "longitude": -97.31137,
    "website_url": "https://www.tesla.com/findus/location/store/fortworth5812nfwy",
    "demo_drive_url": "https://www.tesla.com/drive?lat=32.85136&lng=-97.31137"
  },
  {
    "name": "Houston",
    "address": "19820 Hempstead Hwy",
    "city": "Houston",
    "state": "Texas",
    "zip_code": "77065",
    "phone": "281-571-4390",
    "latitude": 29.9127482,
    "longitude": -95.6150909,
    "website_url": "https://www.tesla.com/findus/location/store/houston",
    "demo_drive_url": "https://www.tesla.com/drive?lat=29.9127482&lng=-95.6150909"
  },
  {
    "name": "Houston - Richmond",
    "address": "21555 Southwest Fwy Building A",
    "city": "Richmond",
    "state": "Texas",
    "zip_code": "77469",
    "phone": "346-762-6700",
    "latitude": 29.5564029,
    "longitude": -95.7072456,
    "website_url": "https://www.tesla.com/findus/location/store/houstonrichmond",
    "demo_drive_url": "https://www.tesla.com/drive?lat=29.5564029&lng=-95.7072456"
  },
  {
    "name": "Houston-Houston Galleria",
    "address": "5135 West Alabama Street Suite 5270",
    "city": "Houston",
    "state": "Texas",
    "zip_code": "77056",
    "phone": "(713) 622-3393",
    "latitude": 29.7377008,
    "longitude": -95.4645439,
    "website_url": "https://www.tesla.com/findus/location/store/houstonhoustongalleria",
    "demo_drive_url": "https://www.tesla.com/drive?lat=29.7377008&lng=-95.4645439"
  },
  {
    "name": "Houston-Westchase-Westheimer",
    "address": "9633 Westheimer Rd",
    "city": "Houston",
    "state": "Texas",
    "zip_code": "77063",
    "phone": "713-821-2700",
    "latitude": 29.7362087,
    "longitude": -95.5375317,
    "website_url": "https://www.tesla.com/findus/location/store/houstonwestchasewestheimer",
    "demo_drive_url": "https://www.tesla.com/drive?lat=29.7362087&lng=-95.5375317"
  },
  {
    "name": "League City",
    "address": "400 GULF FWY S",
    "city": "LEAGUE CITY",
    "state": "Texas",
    "zip_code": "77573",
    "phone": "281-724-6245",
    "latitude": 29.4992881,
    "longitude": -95.1108011,
    "website_url": "https://www.tesla.com/findus/location/store/leaguecity",
    "demo_drive_url": "https://www.tesla.com/drive?lat=29.4992881&lng=-95.1108011"
  },
  {
    "name": "Lubbock",
    "address": "6544 82nd St",
    "city": "Lubbock",
    "state": "Texas",
    "zip_code": "79424",
    "phone": "806-503-6224",
    "latitude": 33.5203948,
    "longitude": -101.961764,
    "website_url": "https://www.tesla.com/findus/location/store/lubbock",
    "demo_drive_url": "https://www.tesla.com/drive?lat=33.5203948&lng=-101.961764"
  },
  {
    "name": "Market Street-The Woodlands",
    "address": "9595 SIX PINES DR",
    "city": "THE WOODLANDS",
    "state": "Texas",
    "zip_code": "77380",
    "phone": "832-616-2822",
    "latitude": 30.1639605,
    "longitude": -95.4643004,
    "website_url": "https://www.tesla.com/findus/location/store/marketstreetthewoodlands",
    "demo_drive_url": "https://www.tesla.com/drive?lat=30.1639605&lng=-95.4643004"
  },
  {
    "name": "Plano - Democracy Drive",
    "address": "5800 Democracy Drive",
    "city": "Plano",
    "state": "Texas",
    "zip_code": "75024",
    "phone": "469-366-3436",
    "latitude": 33.06787,
    "longitude": -96.822623,
    "website_url": "https://www.tesla.com/findus/location/store/planodemocracydrive",
    "demo_drive_url": "https://www.tesla.com/drive?lat=33.06787&lng=-96.822623"
  },
  {
    "name": "Plano - Lexington",
    "address": "300 Lexington Dr",
    "city": "Plano",
    "state": "Texas",
    "zip_code": "75075",
    "phone": "(469) 304-4322",
    "latitude": 33.0357901,
    "longitude": -96.70733,
    "website_url": "https://www.tesla.com/findus/location/store/planolexington",
    "demo_drive_url": "https://www.tesla.com/drive?lat=33.0357901&lng=-96.70733"
  },
  {
    "name": "Plano-Legacy West",
    "address": "7500 Windrose Avenue Space B185",
    "city": "Plano",
    "state": "Texas",
    "zip_code": "75024",
    "phone": "469-331-9677",
    "latitude": 33.080875,
    "longitude": -96.826109,
    "website_url": "https://www.tesla.com/findus/location/store/planolegacywest",
    "demo_drive_url": "https://www.tesla.com/drive?lat=33.080875&lng=-96.826109"
  },
  {
    "name": "Pond Springs",
    "address": "12845 N Highway 183",
    "city": "Austin",
    "state": "Texas",
    "zip_code": "78750",
    "phone": "737.207.8000",
    "latitude": 30.4357336,
    "longitude": -97.7708997,
    "website_url": "https://www.tesla.com/findus/location/store/pondsprings",
    "demo_drive_url": "https://www.tesla.com/drive?lat=30.4357336&lng=-97.7708997"
  },
  {
    "name": "San Antonio",
    "address": "8320-8434 Airport Blvd",
    "city": "San Antonio",
    "state": "Texas",
    "zip_code": "78216",
    "phone": "210-446-2318",
    "latitude": 29.5148616,
    "longitude": -98.4761476,
    "website_url": "https://www.tesla.com/findus/location/store/sanantonio",
    "demo_drive_url": "https://www.tesla.com/drive?lat=29.5148616&lng=-98.4761476"
  },
  {
    "name": "San Antonio-Dominion",
    "address": "23011 IH-10 West",
    "city": "San Antonio",
    "state": "Texas",
    "zip_code": "78257",
    "phone": "210-974-6035",
    "latitude": 29.655276,
    "longitude": -98.626369,
    "website_url": "https://www.tesla.com/findus/location/store/sanantoniodominion",
    "demo_drive_url": "https://www.tesla.com/drive?lat=29.655276&lng=-98.626369"
  },
  {
    "name": "Southlake-Southlake Town Center",
    "address": "257 Grand Avenue",
    "city": "Southlake",
    "state": "Texas",
    "zip_code": "76092",
    "phone": "(817) 722-0386",
    "latitude": 32.9436533,
    "longitude": -97.130195,
    "website_url": "https://www.tesla.com/findus/location/store/southlakesouthlaketowncenter",
    "demo_drive_url": "https://www.tesla.com/drive?lat=32.9436533&lng=-97.130195"
  },
  {
    "name": "Tesla - Flower Mound",
    "address": "1805 Justin Rd",
    "city": "Flower Mound",
    "state": "Texas",
    "zip_code": "75028",
    "phone": "(469) 528-4713",
    "latitude": 33.0703601,
    "longitude": -97.054966,
    "website_url": "https://www.tesla.com/findus/location/store/teslaflowermound",
    "demo_drive_url": "https://www.tesla.com/drive?lat=33.0703601&lng=-97.054966"
  },
  {
    "name": "Tesla - The Woodlands - Tesla Center",
    "address": "9420 College Park Dr",
    "city": "The Woodlands",
    "state": "Texas",
    "zip_code": "77384",
    "phone": "(936) 703-1263",
    "latitude": 30.2289924,
    "longitude": -95.5088204,
    "website_url": "https://www.tesla.com/findus/location/store/teslathewoodlandsteslacenter",
    "demo_drive_url": "https://www.tesla.com/drive?lat=30.2289924&lng=-95.5088204"
  },
  {
    "name": "Tesla Brazos Mall Pop up",
    "address": "100 TX-332",
    "city": "Lake Jackson",
    "state": "Texas",
    "zip_code": "77566",
    "phone": "(713) 821-2700",
    "latitude": 29.0506919,
    "longitude": -95.459119,
    "website_url": "https://www.tesla.com/findus/location/store/teslabrazosmallpopup",
    "demo_drive_url": "https://www.tesla.com/drive?lat=29.0506919&lng=-95.459119"
  },
  {
    "name": "Tesla Cielo Vista Mall Pop-up",
    "address": "8401 Gateway Blvd W",
    "city": "El Paso",
    "state": "Texas",
    "zip_code": "79925",
    "phone": "(915) 779-7070",
    "latitude": 31.7753257,
    "longitude": -106.3791262,
    "website_url": "https://www.tesla.com/findus/location/store/teslacielovistamallpopup",
    "demo_drive_url": "https://www.tesla.com/drive?lat=31.7753257&lng=-106.3791262"
  },
  {
    "name": "Tesla Lakeline Mall Pop-Up",
    "address": "11200 Lakeline Mall Dr",
    "city": "Cedar Park",
    "state": "Texas",
    "zip_code": "78613",
    "phone": "(512) 257-7467",
    "latitude": 30.4700139,
    "longitude": -97.8072249,
    "website_url": "https://www.tesla.com/findus/location/store/teslalakelinemallpopup",
    "demo_drive_url": "https://www.tesla.com/drive?lat=30.4700139&lng=-97.8072249"
  },
  {
    "name": "Tesla Midland Park Mall Pop Up",
    "address": "4511 N Midkiff Rd",
    "city": "Midland",
    "state": "Texas",
    "zip_code": "79705",
    "phone": "(806) 503-6224",
    "latitude": 32.0301564,
    "longitude": -102.1316508,
    "website_url": "https://www.tesla.com/findus/location/store/teslamidlandparkmallpopup",
    "demo_drive_url": "https://www.tesla.com/drive?lat=32.0301564&lng=-102.1316508"
  },
  {
    "name": "Tesla Parkdale Mall Pop-Up",
    "address": "6155 Eastex Fwy",
    "city": "Beaumont",
    "state": "Texas",
    "zip_code": "77706",
    "phone": "(409) 898-2222",
    "latitude": 30.125315,
    "longitude": -94.16058,
    "website_url": "https://www.tesla.com/findus/location/store/teslaparkdalemallpopup",
    "demo_drive_url": "https://www.tesla.com/drive?lat=30.125315&lng=-94.16058"
  },
  {
    "name": "Tesla Post Oak Mall Pop Up",
    "address": "1500 Harvey Rd",
    "city": "College Station",
    "state": "Texas",
    "zip_code": "77840",
    "phone": "(281) 571-4390",
    "latitude": 30.6251971,
    "longitude": -96.3036686,
    "website_url": "https://www.tesla.com/findus/location/store/teslapostoakmallpopup",
    "demo_drive_url": "https://www.tesla.com/drive?lat=30.6251971&lng=-96.3036686"
  },
  {
    "name": "The Domain 11601 Century Oaks Terrace",
    "address": "11601 Century Oaks Terrace Suite 123",
    "city": "Austin",
    "state": "Texas",
    "zip_code": "78758",
    "phone": "(512) 833-6321",
    "latitude": 30.4032405,
    "longitude": -97.7252911,
    "website_url": "https://www.tesla.com/findus/location/store/thedomain11601centuryoaksterrace",
    "demo_drive_url": "https://www.tesla.com/drive?lat=30.4032405&lng=-97.7252911"
  },
  {
    "name": "Tyler",
    "address": "3408 S SW Loop 323",
    "city": "Tyler",
    "state": "Texas",
    "zip_code": "75701",
    "phone": "430-205-7160",
    "latitude": 32.309347,
    "longitude": -95.338969,
    "website_url": "https://www.tesla.com/findus/location/store/tyler",
    "demo_drive_url": "https://www.tesla.com/drive?lat=32.309347&lng=-95.338969"
  },
  {
    "name": "West Austin",
    "address": "7010 State Hwy 71",
    "city": "Austin",
    "state": "Texas",
    "zip_code": "78735",
    "phone": "(512) 382-2736",
    "latitude": 30.2349985,
    "longitude": -97.873938,
    "website_url": "https://www.tesla.com/findus/location/store/westaustin",
    "demo_drive_url": "https://www.tesla.com/drive?lat=30.2349985&lng=-97.873938"
  },
  {
    "name": "Brooklyn",
    "address": "106 2nd Ave",
    "city": "Brooklyn",
    "state": "New York",
    "zip_code": "11215",
    "phone": "(646) 335-1060",
    "latitude": 40.6731907,
    "longitude": -73.9944353,
    "website_url": "https://www.tesla.com/findus/location/store/brooklyn",
    "demo_drive_url": "https://www.tesla.com/drive?lat=40.6731907&lng=-73.9944353"
  },
  {
    "name": "Buffalo",
    "address": "1216 South Park Ave",
    "city": "Buffalo",
    "state": "New York",
    "zip_code": "14220",
    "phone": "(716) 587-3998",
    "latitude": 42.8605316,
    "longitude": -78.8378809,
    "website_url": "https://www.tesla.com/findus/location/store/buffalo",
    "demo_drive_url": "https://www.tesla.com/drive?lat=42.8605316&lng=-78.8378809"
  },
  {
    "name": "Latham",
    "address": "326 Old Niskayuna Road Suite A",
    "city": "Latham",
    "state": "New York",
    "zip_code": "12110",
    "phone": "518-246-2120",
    "latitude": 42.742458,
    "longitude": -73.793652,
    "website_url": "https://www.tesla.com/findus/location/store/latham",
    "demo_drive_url": "https://www.tesla.com/drive?lat=42.742458&lng=-73.793652"
  },
  {
    "name": "Long Island-Syosset",
    "address": "7 Aerial Way",
    "city": "Syosset",
    "state": "New York",
    "zip_code": "11791",
    "phone": "516-864-0535",
    "latitude": 40.7999,
    "longitude": -73.5152,
    "website_url": "https://www.tesla.com/findus/location/store/longislandsyosset",
    "demo_drive_url": "https://www.tesla.com/drive?lat=40.7999&lng=-73.5152"
  },
  {
    "name": "Manhasset-Americana Manhasset",
    "address": "2122 Northern Blvd",
    "city": "Manhasset",
    "state": "New York",
    "zip_code": "11030",
    "phone": "516-734-0271",
    "latitude": 40.796214,
    "longitude": -73.669443,
    "website_url": "https://www.tesla.com/findus/location/store/manhassetamericanamanhasset",
    "demo_drive_url": "https://www.tesla.com/drive?lat=40.796214&lng=-73.669443"
  },
  {
    "name": "Westchester",
    "address": "115 Kisco Avenue",
    "city": "Mount Kisco",
    "state": "New York",
    "zip_code": "10549",
    "phone": "914.218.8900",
    "latitude": 41.212675,
    "longitude": -73.727486,
    "website_url": "https://www.tesla.com/findus/location/store/westchester",
    "demo_drive_url": "https://www.tesla.com/drive?lat=41.212675&lng=-73.727486"
  },
  {
    "name": "Oneida",
    "address": "5218 Patrick Rd",
    "city": "Verona",
    "state": "New York",
    "zip_code": "13478",
    "phone": "",
    "latitude": 43.1125833,
    "longitude": -75.591062,
    "website_url": "https://www.tesla.com/findus/location/store/oneida",
    "demo_drive_url": "https://www.tesla.com/drive?lat=43.1125833&lng=-75.591062"
  },
  {
    "name": "Rochester",
    "address": "3535 W Henrietta Road",
    "city": "Rochester",
    "state": "New York",
    "zip_code": "14623",
    "phone": "(585) 613-9120",
    "latitude": 43.0837122,
    "longitude": -77.640278,
    "website_url": "https://www.tesla.com/findus/location/store/rochester",
    "demo_drive_url": "https://www.tesla.com/drive?lat=43.0837122&lng=-77.640278"
  },
  {
    "name": "Smithtown",
    "address": "1000 Nesconset Hwy",
    "city": "Nesconset",
    "state": "New York",
    "zip_code": "11767",
    "phone": "6319822134",
    "latitude": 40.85974,
    "longitude": -73.14134,
    "website_url": "https://www.tesla.com/findus/location/store/smithtown",
    "demo_drive_url": "https://www.tesla.com/drive?lat=40.85974&lng=-73.14134"
  },
  {
    "name": "Syracuse-Fayetteville",
    "address": "5427 N BURDICK ST",
    "city": "FAYETTEVILLE",
    "state": "New York",
    "zip_code": "13066",
    "phone": "(315) 231-2182",
    "latitude": 43.0370663,
    "longitude": -76.0182468,
    "website_url": "https://www.tesla.com/findus/location/store/syracusefayetteville",
    "demo_drive_url": "https://www.tesla.com/drive?lat=43.0370663&lng=-76.0182468"
  },
  {
    "name": "Tesla Meatpacking",
    "address": "860 Washington St.",
    "city": "New York",
    "state": "New York",
    "zip_code": "10014",
    "phone": "2122061204",
    "latitude": 40.74107,
    "longitude": -74.007562,
    "website_url": "https://www.tesla.com/findus/location/store/teslameatpacking",
    "demo_drive_url": "https://www.tesla.com/drive?lat=40.74107&lng=-74.007562"
  },
  {
    "name": "Westbury",
    "address": "1350 CORPORATE DR",
    "city": "WESTBURY",
    "state": "New York",
    "zip_code": "11590",
    "phone": "(516) 247-4093",
    "latitude": 40.7428224,
    "longitude": -73.5875694,
    "website_url": "https://www.tesla.com/findus/location/store/westbury",
    "demo_drive_url": "https://www.tesla.com/drive?lat=40.7428224&lng=-73.5875694"
  },
  {
    "name": "White Plains-Tarrytown",
    "address": "250 Tarrytown Rd",
    "city": "White Plains",
    "state": "New York",
    "zip_code": "10607",
    "phone": "(914) 467-5070",
    "latitude": 41.0418883,
    "longitude": -73.7918184,
    "website_url": "https://www.tesla.com/findus/location/store/whiteplainstarrytown",
    "demo_drive_url": "https://www.tesla.com/drive?lat=41.0418883&lng=-73.7918184"
  },
  {
    "name": "Bloomington",
    "address": "420 Olympia Dr",
    "city": "Bloomington",
    "state": "Illinois",
    "zip_code": "61704",
    "phone": "309-445-8919",
    "latitude": 40.468679,
    "longitude": -88.907781,
    "website_url": "https://www.tesla.com/findus/location/store/bloomington",
    "demo_drive_url": "https://www.tesla.com/drive?lat=40.468679&lng=-88.907781"
  },
  {
    "name": "CherryVale Mall Pop-Up",
    "address": "7200 Harrison Ave",
    "city": "Rockford Township",
    "state": "Illinois",
    "zip_code": "61112",
    "phone": "",
    "latitude": 42.2461735,
    "longitude": -88.9757903,
    "website_url": "https://www.tesla.com/findus/location/store/cherryvalemallpopup",
    "demo_drive_url": "https://www.tesla.com/drive?lat=42.2461735&lng=-88.9757903"
  },
  {
    "name": "Chicago",
    "address": "717 S Desplaines St",
    "city": "Chicago",
    "state": "Illinois",
    "zip_code": "60607",
    "phone": "(630) 320-7985",
    "latitude": 41.8730544,
    "longitude": -87.6428499,
    "website_url": "https://www.tesla.com/findus/location/store/chicago",
    "demo_drive_url": "https://www.tesla.com/drive?lat=41.8730544&lng=-87.6428499"
  },
  {
    "name": "Chicago-Gold Coast",
    "address": "901 N Rush St",
    "city": "Chicago",
    "state": "Illinois",
    "zip_code": "60611",
    "phone": "(312) 764-5176",
    "latitude": 41.899332,
    "longitude": -87.6266012,
    "website_url": "https://www.tesla.com/findus/location/store/chicagogoldcoast",
    "demo_drive_url": "https://www.tesla.com/drive?lat=41.899332&lng=-87.6266012"
  },
  {
    "name": "Chicago-Schaumburg",
    "address": "320 West Golf Road",
    "city": "Schaumburg",
    "state": "Illinois",
    "zip_code": "60195",
    "phone": "630-283-4328",
    "latitude": 42.0491005,
    "longitude": -88.0881959,
    "website_url": "https://www.tesla.com/findus/location/store/chicagoschaumburg",
    "demo_drive_url": "https://www.tesla.com/drive?lat=42.0491005&lng=-88.0881959"
  },
  {
    "name": "Chicago-Westmont",
    "address": "50 W. Ogden Ave",
    "city": "Westmont",
    "state": "Illinois",
    "zip_code": "60559",
    "phone": "(630) 541-1214",
    "latitude": 41.810562,
    "longitude": -87.978325,
    "website_url": "https://www.tesla.com/findus/location/store/chicagowestmont",
    "demo_drive_url": "https://www.tesla.com/drive?lat=41.810562&lng=-87.978325"
  },
  {
    "name": "Libertyville",
    "address": "1121 S Milwaukee Ave",
    "city": "Libertyville",
    "state": "Illinois",
    "zip_code": "60048",
    "phone": "847-932-6754",
    "latitude": 42.2667662,
    "longitude": -87.9511833,
    "website_url": "https://www.tesla.com/findus/location/store/libertyville",
    "demo_drive_url": "https://www.tesla.com/drive?lat=42.2667662&lng=-87.9511833"
  },
  {
    "name": "Naperville",
    "address": "3200 Ogden Ave",
    "city": "Lisle",
    "state": "Illinois",
    "zip_code": "60532",
    "phone": "630-328-2251",
    "latitude": 41.7967366,
    "longitude": -88.1150556,
    "website_url": "https://www.tesla.com/findus/location/store/naperville",
    "demo_drive_url": "https://www.tesla.com/drive?lat=41.7967366&lng=-88.1150556"
  },
  {
    "name": "Northbrook",
    "address": "1200 Skokie Blvd",
    "city": "Northbrook",
    "state": "Illinois",
    "zip_code": "60062",
    "phone": "(847) 239-9982",
    "latitude": 42.1288207,
    "longitude": -87.7866777,
    "website_url": "https://www.tesla.com/findus/location/store/northbrook",
    "demo_drive_url": "https://www.tesla.com/drive?lat=42.1288207&lng=-87.7866777"
  },
  {
    "name": "Orland Park - 159th St",
    "address": "8601 W 159th st",
    "city": "Orland Park",
    "state": "Illinois",
    "zip_code": "60462",
    "phone": "708 781 4476",
    "latitude": 41.6008672,
    "longitude": -87.8290428,
    "website_url": "https://www.tesla.com/findus/location/store/orlandpark159thst",
    "demo_drive_url": "https://www.tesla.com/drive?lat=41.6008672&lng=-87.8290428"
  },
  {
    "name": "Buffalo Grove",
    "address": "915 Dundee Rd",
    "city": "Buffalo Grove",
    "state": "Illinois",
    "zip_code": "60089",
    "phone": "(847) 660-1126",
    "latitude": 42.1381894,
    "longitude": -87.9771961,
    "website_url": "https://www.tesla.com/findus/location/store/buffalogrove",
    "demo_drive_url": "https://www.tesla.com/drive?lat=42.1381894&lng=-87.9771961"
  },
  {
    "name": "Tesla Rockford",
    "address": "1998 McFarland Rd",
    "city": "Rockford",
    "state": "Illinois",
    "zip_code": "61107",
    "phone": "(779) 500-6155",
    "latitude": 42.2928218,
    "longitude": -88.9790064,
    "website_url": "https://www.tesla.com/findus/location/store/teslarockford",
    "demo_drive_url": "https://www.tesla.com/drive?lat=42.2928218&lng=-88.9790064"
  },
  {
    "name": "Pittsburgh",
    "address": "1400 Brockwell St",
    "city": "Bridgeville",
    "state": "Pennsylvania",
    "zip_code": "15017",
    "phone": "4123195316",
    "latitude": 40.3605312,
    "longitude": -80.1208653,
    "website_url": "https://www.tesla.com/findus/location/store/pittsburgh",
    "demo_drive_url": "https://www.tesla.com/drive?lat=40.3605312&lng=-80.1208653"
  },
  {
    "name": "Devon",
    "address": "470 W. Lancaster Avenue",
    "city": "Devon",
    "state": "Pennsylvania",
    "zip_code": "19333",
    "phone": "610-407-7030",
    "latitude": 40.045865,
    "longitude": -75.433279,
    "website_url": "https://www.tesla.com/findus/location/store/devon",
    "demo_drive_url": "https://www.tesla.com/drive?lat=40.045865&lng=-75.433279"
  },
  {
    "name": "Tesla - King of Prussia Mall",
    "address": "160 N Gulph Rd Suit 1310B",
    "city": "King of Prussia",
    "state": "Pennsylvania",
    "zip_code": "19406",
    "phone": "(484) 235-5858",
    "latitude": 40.088359,
    "longitude": -75.3909134,
    "website_url": "https://www.tesla.com/findus/location/store/teslakingofprussiamall",
    "demo_drive_url": "https://www.tesla.com/drive?lat=40.088359&lng=-75.3909134"
  },
  {
    "name": "Mechanicsburg",
    "address": "6458 Carlisle Pike",
    "city": "Mechanicsburg",
    "state": "Pennsylvania",
    "zip_code": "17050",
    "phone": "717-590-6241",
    "latitude": 40.2474461,
    "longitude": -77.0162336,
    "website_url": "https://www.tesla.com/findus/location/store/mechanicsburg",
    "demo_drive_url": "https://www.tesla.com/drive?lat=40.2474461&lng=-77.0162336"
  },
  {
    "name": "Tesla - Wexford",
    "address": "14010 Perry Hwy",
    "city": "Wexford",
    "state": "Pennsylvania",
    "zip_code": "15090",
    "phone": "(878) 332-6091",
    "latitude": 40.6461445,
    "longitude": -80.0711121,
    "website_url": "https://www.tesla.com/findus/location/store/teslawexford",
    "demo_drive_url": "https://www.tesla.com/drive?lat=40.6461445&lng=-80.0711121"
  },
  {
    "name": "Warminster",
    "address": "700 York Rd",
    "city": "Warminster",
    "state": "Pennsylvania",
    "zip_code": "18974",
    "phone": "(215) 347-1004",
    "latitude": 40.211002,
    "longitude": -75.1010818,
    "website_url": "https://www.tesla.com/findus/location/store/warminster",
    "demo_drive_url": "https://www.tesla.com/drive?lat=40.211002&lng=-75.1010818"
  },
  {
    "name": "West Chester",
    "address": "1568 W CHESTER PIKE",
    "city": "West Chester",
    "state": "Pennsylvania",
    "zip_code": "19382",
    "phone": "610-883-5044",
    "latitude": 39.9657699,
    "longitude": -75.5248494,
    "website_url": "https://www.tesla.com/findus/location/store/westchester",
    "demo_drive_url": "https://www.tesla.com/drive?lat=39.9657699&lng=-75.5248494"
  },
  {
    "name": "Boston-Boylston Street",
    "address": "888 Boylston Street Suite 055",
    "city": "Boston",
    "state": "Massachusetts",
    "zip_code": "02116",
    "phone": "6174764003",
    "latitude": 42.3475062,
    "longitude": -71.0839303,
    "website_url": "https://www.tesla.com/findus/location/store/bostonboylstonstreet",
    "demo_drive_url": "https://www.tesla.com/drive?lat=42.3475062&lng=-71.0839303"
  },
  {
    "name": "Dedham",
    "address": "840 Providence Highway",
    "city": "Dedham",
    "state": "Massachusetts",
    "zip_code": "02026",
    "phone": "7814713001",
    "latitude": 42.235962,
    "longitude": -71.178212,
    "website_url": "https://www.tesla.com/findus/location/store/dedham",
    "demo_drive_url": "https://www.tesla.com/drive?lat=42.235962&lng=-71.178212"
  },
  {
    "name": "Norwell",
    "address": "98 Accord Park Dr",
    "city": "Norwell",
    "state": "Massachusetts",
    "zip_code": "02061",
    "phone": "781-763-0035",
    "latitude": 42.1665499,
    "longitude": -70.887739,
    "website_url": "https://www.tesla.com/findus/location/store/norwell",
    "demo_drive_url": "https://www.tesla.com/drive?lat=42.1665499&lng=-70.887739"
  },
  {
    "name": "Peabody",
    "address": "210 Andover St",
    "city": "Peabody",
    "state": "Massachusetts",
    "zip_code": "01960",
    "phone": "978-326-1623",
    "latitude": 42.5411906,
    "longitude": -70.9407857,
    "website_url": "https://www.tesla.com/findus/location/store/peabody",
    "demo_drive_url": "https://www.tesla.com/drive?lat=42.5411906&lng=-70.9407857"
  },
  {
    "name": "Tesla Natick",
    "address": "1245 Worcester St Space 3018",
    "city": "Natick",
    "state": "Massachusetts",
    "zip_code": "01760",
    "phone": "(508) 975-4230",
    "latitude": 42.302269,
    "longitude": -71.3833728,
    "website_url": "https://www.tesla.com/findus/location/store/teslanatick",
    "demo_drive_url": "https://www.tesla.com/drive?lat=42.302269&lng=-71.3833728"
  },
  {
    "name": "Ann Arbor",
    "address": "3530 Jackson Rd",
    "city": "Ann Arbor",
    "state": "Michigan",
    "zip_code": "48103",
    "phone": "734 887 7853",
    "latitude": 42.2857319,
    "longitude": -83.8020491,
    "website_url": "https://www.tesla.com/findus/location/store/annarbor",
    "demo_drive_url": "https://www.tesla.com/drive?lat=42.2857319&lng=-83.8020491"
  },
  {
    "name": "Grand Rapids",
    "address": "2919 29th Street SE",
    "city": "Grand Rapids",
    "state": "Michigan",
    "zip_code": "49512",
    "phone": "616-228-6758",
    "latitude": 42.910868,
    "longitude": -85.595622,
    "website_url": "https://www.tesla.com/findus/location/store/grandrapids",
    "demo_drive_url": "https://www.tesla.com/drive?lat=42.910868&lng=-85.595622"
  },
  {
    "name": "Somerset Collection",
    "address": "2800 W. Big Beaver Road Space #N-114",
    "city": "Troy",
    "state": "Michigan",
    "zip_code": "48084",
    "phone": "248-205-1997",
    "latitude": 42.563075,
    "longitude": -83.183398,
    "website_url": "https://www.tesla.com/findus/location/store/somersetcollection",
    "demo_drive_url": "https://www.tesla.com/drive?lat=42.563075&lng=-83.183398"
  },
  {
    "name": "Tesla Meridian Mall Pop Up",
    "address": "1982 W Grand River Ave",
    "city": "Meridian Township",
    "state": "Michigan",
    "zip_code": "48864",
    "phone": "",
    "latitude": 42.72555,
    "longitude": -84.4183167,
    "website_url": "https://www.tesla.com/findus/location/store/teslameridianmallpopup",
    "demo_drive_url": "https://www.tesla.com/drive?lat=42.72555&lng=-84.4183167"
  },
  {
    "name": "Twelve Oaks Mall- Novi",
    "address": "27804X Novi Rd",
    "city": "Novi",
    "state": "Michigan",
    "zip_code": "48377",
    "phone": "(248) 205-1997",
    "latitude": 42.4921678,
    "longitude": -83.4687821,
    "website_url": "https://www.tesla.com/findus/location/store/twelveoaksmallnovi",
    "demo_drive_url": "https://www.tesla.com/drive?lat=42.4921678&lng=-83.4687821"
  },
  {
    "name": "West Bloomfield Township",
    "address": "6800 Orchard Lake Rd",
    "city": "West Bloomfield Township",
    "state": "Michigan",
    "zip_code": "48322-3412",
    "phone": "(248) 862-7298",
    "latitude": 42.538233,
    "longitude": -83.3616583,
    "website_url": "https://www.tesla.com/findus/location/store/westbloomfieldtownship",
    "demo_drive_url": "https://www.tesla.com/drive?lat=42.538233&lng=-83.3616583"
  },
  {
    "name": "Golden Valley",
    "address": "700 Ottawa Ave N",
    "city": "Golden Valley",
    "state": "Minnesota",
    "zip_code": "55422",
    "phone": "(763) 656-6995",
    "latitude": 44.9864,
    "longitude": -93.3393452,
    "website_url": "https://www.tesla.com/findus/location/store/goldenvalley",
    "demo_drive_url": "https://www.tesla.com/drive?lat=44.9864&lng=-93.3393452"
  },
  {
    "name": "St. Paul  Lake Elmo",
    "address": "9800 Hudson Blvd N",
    "city": "Lake Elmo",
    "state": "Minnesota",
    "zip_code": "55042",
    "phone": "(763) 347-3895",
    "latitude": 44.9498624,
    "longitude": -92.9074207,
    "website_url": "https://www.tesla.com/findus/location/store/st.paullakeelmo",
    "demo_drive_url": "https://www.tesla.com/drive?lat=44.9498624&lng=-92.9074207"
  },
  {
    "name": "Mall of America Kiosk",
    "address": "60 E Broadway",
    "city": "Bloomington",
    "state": "Minnesota",
    "zip_code": "55425",
    "phone": "(763) 656-6995",
    "latitude": 44.8548651,
    "longitude": -93.2422148,
    "website_url": "https://www.tesla.com/findus/location/store/mallofamericakiosk",
    "demo_drive_url": "https://www.tesla.com/drive?lat=44.8548651&lng=-93.2422148"
  },
  {
    "name": "Minneapolis-Eden Prairie",
    "address": "6801 Washington Ave S",
    "city": "Minneapolis",
    "state": "Minnesota",
    "zip_code": "55439",
    "phone": "952-433-1373",
    "latitude": 44.87963,
    "longitude": -93.3992963,
    "website_url": "https://www.tesla.com/findus/location/store/minneapolisedenprairie",
    "demo_drive_url": "https://www.tesla.com/drive?lat=44.87963&lng=-93.3992963"
  },
  {
    "name": "Rogers",
    "address": "22015 S Diamond Lake Rd",
    "city": "Rogers",
    "state": "Minnesota",
    "zip_code": "55374",
    "phone": "612-486-9600",
    "latitude": 45.1991036,
    "longitude": -93.5599668,
    "website_url": "https://www.tesla.com/findus/location/store/rogers",
    "demo_drive_url": "https://www.tesla.com/drive?lat=45.1991036&lng=-93.5599668"
  },
  {
    "name": "St. Paul",
    "address": "2590 West Maplewood Drive",
    "city": "Maplewood",
    "state": "Minnesota",
    "zip_code": "55109",
    "phone": "(763) 347-7123",
    "latitude": 45.017892,
    "longitude": -93.050723,
    "website_url": "https://www.tesla.com/findus/location/store/st.paul",
    "demo_drive_url": "https://www.tesla.com/drive?lat=45.017892&lng=-93.050723"
  },
  {
    "name": "Tesla Apache Mall Pop Up",
    "address": "333 Apache Mall",
    "city": "Rochester",
    "state": "Minnesota",
    "zip_code": "55902",
    "phone": "(763) 347-3895",
    "latitude": 44.0046562,
    "longitude": -92.4789815,
    "website_url": "https://www.tesla.com/findus/location/store/teslaapachemallpopup",
    "demo_drive_url": "https://www.tesla.com/drive?lat=44.0046562&lng=-92.4789815"
  },
  {
    "name": "Las Vegas - E. Sahara",
    "address": "3250 E SAHARA AVE",
    "city": "Las Vegas",
    "state": "Nevada",
    "zip_code": "89104",
    "phone": "(702) 473-7223",
    "latitude": 36.1451074,
    "longitude": -115.1034963,
    "website_url": "https://www.tesla.com/findus/location/store/lasvegase.sahara",
    "demo_drive_url": "https://www.tesla.com/drive?lat=36.1451074&lng=-115.1034963"
  },
  {
    "name": "Las Vegas-W. Sahara Ave",
    "address": "7077 West Sahara Avenue",
    "city": "Las Vegas",
    "state": "Nevada",
    "zip_code": "89117",
    "phone": "7029146500",
    "latitude": 36.143473,
    "longitude": -115.246794,
    "website_url": "https://www.tesla.com/findus/location/store/lasvegasw.saharaave",
    "demo_drive_url": "https://www.tesla.com/drive?lat=36.143473&lng=-115.246794"
  },
  {
    "name": "Reno",
    "address": "9732 S Virginia Street",
    "city": "Reno",
    "state": "Nevada",
    "zip_code": "89511",
    "phone": "775-453-7957",
    "latitude": 39.444704,
    "longitude": -119.769792,
    "website_url": "https://www.tesla.com/findus/location/store/reno",
    "demo_drive_url": "https://www.tesla.com/drive?lat=39.444704&lng=-119.769792"
  },
  {
    "name": "American Dream East Rutherford",
    "address": "1 American Dream Way",
    "city": "East Rutherford",
    "state": "New Jersey",
    "zip_code": "07073",
    "phone": "(833) 263-7326",
    "latitude": 40.8094502,
    "longitude": -74.0669268,
    "website_url": "https://www.tesla.com/findus/location/store/americandreameastrutherford",
    "demo_drive_url": "https://www.tesla.com/drive?lat=40.8094502&lng=-74.0669268"
  },
  {
    "name": "Cherry Hill",
    "address": "1605 Route 70 West",
    "city": "Cherry Hill",
    "state": "New Jersey",
    "zip_code": "08002",
    "phone": "856-356-1088",
    "latitude": 39.9173111,
    "longitude": -75.0297792,
    "website_url": "https://www.tesla.com/findus/location/store/cherryhill",
    "demo_drive_url": "https://www.tesla.com/drive?lat=39.9173111&lng=-75.0297792"
  },
  {
    "name": "Eatontown",
    "address": "269 Route 35",
    "city": "Eatontown",
    "state": "New Jersey",
    "zip_code": "07724",
    "phone": "7326762011",
    "latitude": 40.2836156,
    "longitude": -74.0486475,
    "website_url": "https://www.tesla.com/findus/location/store/eatontown",
    "demo_drive_url": "https://www.tesla.com/drive?lat=40.2836156&lng=-74.0486475"
  },
  {
    "name": "Englewood",
    "address": "45 Cedar Ln",
    "city": "Englewood",
    "state": "New Jersey",
    "zip_code": "07631",
    "phone": "(201) 477-7975",
    "latitude": 40.8773612,
    "longitude": -73.9887879,
    "website_url": "https://www.tesla.com/findus/location/store/englewood",
    "demo_drive_url": "https://www.tesla.com/drive?lat=40.8773612&lng=-73.9887879"
  },
  {
    "name": "Garden State Plaza",
    "address": "One Garden State Plaza Suite 2124",
    "city": "Paramus",
    "state": "New Jersey",
    "zip_code": "07652",
    "phone": "201.291.5630",
    "latitude": 40.9176228,
    "longitude": -74.076344,
    "website_url": "https://www.tesla.com/findus/location/store/gardenstateplaza",
    "demo_drive_url": "https://www.tesla.com/drive?lat=40.9176228&lng=-74.076344"
  },
  {
    "name": "Lawrence Township",
    "address": "3371 Brunswick Pike",
    "city": "Lawrence Township",
    "state": "New Jersey",
    "zip_code": "08648",
    "phone": "609-806-2611",
    "latitude": 40.2950005,
    "longitude": -74.684471,
    "website_url": "https://www.tesla.com/findus/location/store/lawrencetownship",
    "demo_drive_url": "https://www.tesla.com/drive?lat=40.2950005&lng=-74.684471"
  },
  {
    "name": "Paramus",
    "address": "530 NJ-17",
    "city": "Paramus",
    "state": "New Jersey",
    "zip_code": "07652",
    "phone": "201-225-2544",
    "latitude": 40.957709,
    "longitude": -74.0734305,
    "website_url": "https://www.tesla.com/findus/location/store/paramus",
    "demo_drive_url": "https://www.tesla.com/drive?lat=40.957709&lng=-74.0734305"
  },
  {
    "name": "Springfield",
    "address": "135 US 22",
    "city": "Springfield",
    "state": "New Jersey",
    "zip_code": "07081",
    "phone": "973-921-0925",
    "latitude": 40.6860212,
    "longitude": -74.3166015,
    "website_url": "https://www.tesla.com/findus/location/store/springfield",
    "demo_drive_url": "https://www.tesla.com/drive?lat=40.6860212&lng=-74.3166015"
  },
  {
    "name": "Cincinnati - Oakley",
    "address": "5245 Ridge Ave",
    "city": "Cincinnati",
    "state": "Ohio",
    "zip_code": "45213",
    "phone": "(513) 514-2898",
    "latitude": 39.1679441,
    "longitude": -84.4256369,
    "website_url": "https://www.tesla.com/findus/location/store/cincinnatioakley",
    "demo_drive_url": "https://www.tesla.com/drive?lat=39.1679441&lng=-84.4256369"
  },
  {
    "name": "Cleveland - Lyndhurst",
    "address": "5180 Mayfield Rd",
    "city": "Lyndhurst",
    "state": "Ohio",
    "zip_code": "44124",
    "phone": "440-461-1016",
    "latitude": 41.5191779,
    "longitude": -81.493795,
    "website_url": "https://www.tesla.com/findus/location/store/clevelandlyndhurst",
    "demo_drive_url": "https://www.tesla.com/drive?lat=41.5191779&lng=-81.493795"
  },
  {
    "name": "Columbus - Easton",
    "address": "4099 Easton Loop West",
    "city": "Columbus",
    "state": "Ohio",
    "zip_code": "43219",
    "phone": "(614) 934-6869",
    "latitude": 40.051938,
    "longitude": -82.91798,
    "website_url": "https://www.tesla.com/findus/location/store/columbuseaston",
    "demo_drive_url": "https://www.tesla.com/drive?lat=40.051938&lng=-82.91798"
  },
  {
    "name": "Tesla Service Akron",
    "address": "52 Springside Dr",
    "city": "Akron",
    "state": "Ohio",
    "zip_code": "44333",
    "phone": "330-598-6036",
    "latitude": 41.1339817,
    "longitude": -81.6457631,
    "website_url": "https://www.tesla.com/findus/location/store/teslaserviceakron",
    "demo_drive_url": "https://www.tesla.com/drive?lat=41.1339817&lng=-81.6457631"
  },
  {
    "name": "Tesla Service Dayton-Moraine",
    "address": "1927 W Dorothy Ln",
    "city": "Moraine",
    "state": "Ohio",
    "zip_code": "45439",
    "phone": "(937) 269-0237",
    "latitude": 39.7100729,
    "longitude": -84.2075513,
    "website_url": "https://www.tesla.com/findus/location/store/teslaservicedaytonmoraine",
    "demo_drive_url": "https://www.tesla.com/drive?lat=39.7100729&lng=-84.2075513"
  },
  {
    "name": "Alpharetta",
    "address": "10700 Davis Dr",
    "city": "Alpharetta",
    "state": "Georgia",
    "zip_code": "30009",
    "phone": "770-360-2000",
    "latitude": 34.0734,
    "longitude": -84.2957,
    "website_url": "https://www.tesla.com/findus/location/store/alpharetta",
    "demo_drive_url": "https://www.tesla.com/drive?lat=34.0734&lng=-84.2957"
  },
  {
    "name": "Atlanta",
    "address": "1600 Howell Mill Rd NW",
    "city": "Atlanta",
    "state": "Georgia",
    "zip_code": "30318",
    "phone": "404-351-5000",
    "latitude": 33.8007,
    "longitude": -84.4444,
    "website_url": "https://www.tesla.com/findus/location/store/atlanta",
    "demo_drive_url": "https://www.tesla.com/drive?lat=33.8007&lng=-84.4444"
  },
  {
    "name": "Atlanta-Lenox Square",
    "address": "3393 Peachtree Rd NE",
    "city": "Atlanta",
    "state": "Georgia",
    "zip_code": "30326",
    "phone": "404-351-5000",
    "latitude": 33.8474,
    "longitude": -84.3659,
    "website_url": "https://www.tesla.com/findus/location/store/atlantalenoxsquare",
    "demo_drive_url": "https://www.tesla.com/drive?lat=33.8474&lng=-84.3659"
  },
  {
    "name": "Marietta",
    "address": "1200 Cobb Pkwy N",
    "city": "Marietta",
    "state": "Georgia",
    "zip_code": "30062",
    "phone": "770-424-2000",
    "latitude": 33.9526,
    "longitude": -84.5499,
    "website_url": "https://www.tesla.com/findus/location/store/marietta",
    "demo_drive_url": "https://www.tesla.com/drive?lat=33.9526&lng=-84.5499"
  },
  {
    "name": "Savannah",
    "address": "14045 Abercorn St",
    "city": "Savannah",
    "state": "Georgia",
    "zip_code": "31419",
    "phone": "912-355-2000",
    "latitude": 32.0835,
    "longitude": -81.0998,
    "website_url": "https://www.tesla.com/findus/location/store/savannah",
    "demo_drive_url": "https://www.tesla.com/drive?lat=32.0835&lng=-81.0998"
  },
  {
    "name": "Tesla Service Atlanta",
    "address": "1600 Howell Mill Rd NW",
    "city": "Atlanta",
    "state": "Georgia",
    "zip_code": "30318",
    "phone": "404-351-5000",
    "latitude": 33.8007,
    "longitude": -84.4444,
    "website_url": "https://www.tesla.com/findus/location/store/teslaserviceatlanta",
    "demo_drive_url": "https://www.tesla.com/drive?lat=33.8007&lng=-84.4444"
  },
  {
    "name": "Charlotte",
    "address": "10800 S Tryon St",
    "city": "Charlotte",
    "state": "North Carolina",
    "zip_code": "28273",
    "phone": "704-716-2000",
    "latitude": 35.2271,
    "longitude": -80.8431,
    "website_url": "https://www.tesla.com/findus/location/store/charlotte",
    "demo_drive_url": "https://www.tesla.com/drive?lat=35.2271&lng=-80.8431"
  },
  {
    "name": "Raleigh",
    "address": "8320 Brier Creek Pkwy",
    "city": "Raleigh",
    "state": "North Carolina",
    "zip_code": "27617",
    "phone": "919-800-2000",
    "latitude": 35.8997,
    "longitude": -78.7847,
    "website_url": "https://www.tesla.com/findus/location/store/raleigh",
    "demo_drive_url": "https://www.tesla.com/drive?lat=35.8997&lng=-78.7847"
  },
  {
    "name": "Durham",
    "address": "5400 New Hope Commons Dr",
    "city": "Durham",
    "state": "North Carolina",
    "zip_code": "27707",
    "phone": "919-800-2000",
    "latitude": 35.994,
    "longitude": -78.8986,
    "website_url": "https://www.tesla.com/findus/location/store/durham",
    "demo_drive_url": "https://www.tesla.com/drive?lat=35.994&lng=-78.8986"
  },
  {
    "name": "Greensboro",
    "address": "3200 W Gate City Blvd",
    "city": "Greensboro",
    "state": "North Carolina",
    "zip_code": "27407",
    "phone": "336-355-2000",
    "latitude": 36.0726,
    "longitude": -79.792,
    "website_url": "https://www.tesla.com/findus/location/store/greensboro",
    "demo_drive_url": "https://www.tesla.com/drive?lat=36.0726&lng=-79.792"
  },
  {
    "name": "Asheville",
    "address": "33 Town Square Blvd",
    "city": "Asheville",
    "state": "North Carolina",
    "zip_code": "28803",
    "phone": "828-258-2000",
    "latitude": 35.5951,
    "longitude": -82.5515,
    "website_url": "https://www.tesla.com/findus/location/store/asheville",
    "demo_drive_url": "https://www.tesla.com/drive?lat=35.5951&lng=-82.5515"
  },
  {
    "name": "Arlington",
    "address": "2100 Crystal Dr",
    "city": "Arlington",
    "state": "Virginia",
    "zip_code": "22202",
    "phone": "703-600-2000",
    "latitude": 38.8568,
    "longitude": -77.0506,
    "website_url": "https://www.tesla.com/findus/location/store/arlington",
    "demo_drive_url": "https://www.tesla.com/drive?lat=38.8568&lng=-77.0506"
  },
  {
    "name": "McLean",
    "address": "1450 Chain Bridge Rd",
    "city": "McLean",
    "state": "Virginia",
    "zip_code": "22101",
    "phone": "703-600-2000",
    "latitude": 38.9298,
    "longitude": -77.2144,
    "website_url": "https://www.tesla.com/findus/location/store/mclean",
    "demo_drive_url": "https://www.tesla.com/drive?lat=38.9298&lng=-77.2144"
  },
  {
    "name": "Norfolk",
    "address": "5800 E Virginia Beach Blvd",
    "city": "Norfolk",
    "state": "Virginia",
    "zip_code": "23502",
    "phone": "757-455-2000",
    "latitude": 36.8468,
    "longitude": -76.2852,
    "website_url": "https://www.tesla.com/findus/location/store/norfolk",
    "demo_drive_url": "https://www.tesla.com/drive?lat=36.8468&lng=-76.2852"
  },
  {
    "name": "Richmond",
    "address": "9700 Midlothian Turnpike",
    "city": "Richmond",
    "state": "Virginia",
    "zip_code": "23235",
    "phone": "804-355-2000",
    "latitude": 37.5407,
    "longitude": -77.436,
    "website_url": "https://www.tesla.com/findus/location/store/richmond",
    "demo_drive_url": "https://www.tesla.com/drive?lat=37.5407&lng=-77.436"
  },
  {
    "name": "Tysons Corner",
    "address": "1961 Chain Bridge Rd",
    "city": "McLean",
    "state": "Virginia",
    "zip_code": "22102",
    "phone": "703-600-2000",
    "latitude": 38.9181,
    "longitude": -77.2207,
    "website_url": "https://www.tesla.com/findus/location/store/tysonscorner",
    "demo_drive_url": "https://www.tesla.com/drive?lat=38.9181&lng=-77.2207"
  },
  {
    "name": "Virginia Beach",
    "address": "4552 Virginia Beach Blvd",
    "city": "Virginia Beach",
    "state": "Virginia",
    "zip_code": "23462",
    "phone": "757-455-2000",
    "latitude": 36.8529,
    "longitude": -76.0159,
    "website_url": "https://www.tesla.com/findus/location/store/virginiabeach",
    "demo_drive_url": "https://www.tesla.com/drive?lat=36.8529&lng=-76.0159"
  },
  {
    "name": "Bellevue",
    "address": "1100 Bellevue Way NE",
    "city": "Bellevue",
    "state": "Washington",
    "zip_code": "98004",
    "phone": "425-455-2000",
    "latitude": 47.6101,
    "longitude": -122.2015,
    "website_url": "https://www.tesla.com/findus/location/store/bellevue",
    "demo_drive_url": "https://www.tesla.com/drive?lat=47.6101&lng=-122.2015"
  },
  {
    "name": "Seattle",
    "address": "1200 1st Ave S",
    "city": "Seattle",
    "state": "Washington",
    "zip_code": "98134",
    "phone": "206-455-2000",
    "latitude": 47.6062,
    "longitude": -122.3321,
    "website_url": "https://www.tesla.com/findus/location/store/seattle",
    "demo_drive_url": "https://www.tesla.com/drive?lat=47.6062&lng=-122.3321"
  },
  {
    "name": "Spokane",
    "address": "9220 N Newport Hwy",
    "city": "Spokane",
    "state": "Washington",
    "zip_code": "99218",
    "phone": "509-455-2000",
    "latitude": 47.6588,
    "longitude": -117.426,
    "website_url": "https://www.tesla.com/findus/location/store/spokane",
    "demo_drive_url": "https://www.tesla.com/drive?lat=47.6588&lng=-117.426"
  },
  {
    "name": "Tacoma",
    "address": "4502 S Steele St",
    "city": "Tacoma",
    "state": "Washington",
    "zip_code": "98409",
    "phone": "253-455-2000",
    "latitude": 47.2529,
    "longitude": -122.4443,
    "website_url": "https://www.tesla.com/findus/location/store/tacoma",
    "demo_drive_url": "https://www.tesla.com/drive?lat=47.2529&lng=-122.4443"
  },
  {
    "name": "Lynnwood",
    "address": "3000 196th St SW",
    "city": "Lynnwood",
    "state": "Washington",
    "zip_code": "98036",
    "phone": "425-455-2000",
    "latitude": 47.8209,
    "longitude": -122.3151,
    "website_url": "https://www.tesla.com/findus/location/store/lynnwood",
    "demo_drive_url": "https://www.tesla.com/drive?lat=47.8209&lng=-122.3151"
  },
  {
    "name": "Renton",
    "address": "400 SW 7th St",
    "city": "Renton",
    "state": "Washington",
    "zip_code": "98057",
    "phone": "425-455-2000",
    "latitude": 47.4829,
    "longitude": -122.2171,
    "website_url": "https://www.tesla.com/findus/location/store/renton",
    "demo_drive_url": "https://www.tesla.com/drive?lat=47.4829&lng=-122.2171"
  },
  {
    "name": "Bellingham",
    "address": "4200 Meridian St",
    "city": "Bellingham",
    "state": "Washington",
    "zip_code": "98226",
    "phone": "360-455-2000",
    "latitude": 48.7519,
    "longitude": -122.4787,
    "website_url": "https://www.tesla.com/findus/location/store/bellingham",
    "demo_drive_url": "https://www.tesla.com/drive?lat=48.7519&lng=-122.4787"
  },
  {
    "name": "Yakima",
    "address": "2408 S 1st St",
    "city": "Yakima",
    "state": "Washington",
    "zip_code": "98903",
    "phone": "509-455-2000",
    "latitude": 46.6021,
    "longitude": -120.5059,
    "website_url": "https://www.tesla.com/findus/location/store/yakima",
    "demo_drive_url": "https://www.tesla.com/drive?lat=46.6021&lng=-120.5059"
  },
  {
    "name": "Portland",
    "address": "1100 SW 6th Ave",
    "city": "Portland",
    "state": "Oregon",
    "zip_code": "97204",
    "phone": "503-455-2000",
    "latitude": 45.5152,
    "longitude": -122.6784,
    "website_url": "https://www.tesla.com/findus/location/store/portland",
    "demo_drive_url": "https://www.tesla.com/drive?lat=45.5152&lng=-122.6784"
  },
  {
    "name": "Beaverton",
    "address": "10700 SW Beaverton-Hillsdale Hwy",
    "city": "Beaverton",
    "state": "Oregon",
    "zip_code": "97005",
    "phone": "503-455-2000",
    "latitude": 45.4871,
    "longitude": -122.8037,
    "website_url": "https://www.tesla.com/findus/location/store/beaverton",
    "demo_drive_url": "https://www.tesla.com/drive?lat=45.4871&lng=-122.8037"
  },
  {
    "name": "Eugene",
    "address": "3000 Oakway Rd",
    "city": "Eugene",
    "state": "Oregon",
    "zip_code": "97401",
    "phone": "541-455-2000",
    "latitude": 44.0521,
    "longitude": -123.0868,
    "website_url": "https://www.tesla.com/findus/location/store/eugene",
    "demo_drive_url": "https://www.tesla.com/drive?lat=44.0521&lng=-123.0868"
  },
  {
    "name": "Bend",
    "address": "63455 N Hwy 97",
    "city": "Bend",
    "state": "Oregon",
    "zip_code": "97701",
    "phone": "541-455-2000",
    "latitude": 44.0582,
    "longitude": -121.3153,
    "website_url": "https://www.tesla.com/findus/location/store/bend",
    "demo_drive_url": "https://www.tesla.com/drive?lat=44.0582&lng=-121.3153"
  },
  {
    "name": "Medford",
    "address": "1600 Crater Lake Ave",
    "city": "Medford",
    "state": "Oregon",
    "zip_code": "97504",
    "phone": "541-455-2000",
    "latitude": 42.3265,
    "longitude": -122.8756,
    "website_url": "https://www.tesla.com/findus/location/store/medford",
    "demo_drive_url": "https://www.tesla.com/drive?lat=42.3265&lng=-122.8756"
  },
  {
    "name": "Salt Lake City",
    "address": "1100 S 300 W",
    "city": "Salt Lake City",
    "state": "Utah",
    "zip_code": "84101",
    "phone": "801-455-2000",
    "latitude": 40.7608,
    "longitude": -111.891,
    "website_url": "https://www.tesla.com/findus/location/store/saltlakecity",
    "demo_drive_url": "https://www.tesla.com/drive?lat=40.7608&lng=-111.891"
  },
  {
    "name": "Park City",
    "address": "1748 W Ute Blvd",
    "city": "Park City",
    "state": "Utah",
    "zip_code": "84098",
    "phone": "435-455-2000",
    "latitude": 40.6461,
    "longitude": -111.498,
    "website_url": "https://www.tesla.com/findus/location/store/parkcity",
    "demo_drive_url": "https://www.tesla.com/drive?lat=40.6461&lng=-111.498"
  },
  {
    "name": "Orem",
    "address": "1075 N 1200 W",
    "city": "Orem",
    "state": "Utah",
    "zip_code": "84057",
    "phone": "801-455-2000",
    "latitude": 40.2969,
    "longitude": -111.6946,
    "website_url": "https://www.tesla.com/findus/location/store/orem",
    "demo_drive_url": "https://www.tesla.com/drive?lat=40.2969&lng=-111.6946"
  },
  {
    "name": "St. George",
    "address": "1091 S River Rd",
    "city": "St. George",
    "state": "Utah",
    "zip_code": "84790",
    "phone": "435-455-2000",
    "latitude": 37.0965,
    "longitude": -113.5684,
    "website_url": "https://www.tesla.com/findus/location/store/st.george",
    "demo_drive_url": "https://www.tesla.com/drive?lat=37.0965&lng=-113.5684"
  },
  {
    "name": "Nashville",
    "address": "2400 8th Ave S",
    "city": "Nashville",
    "state": "Tennessee",
    "zip_code": "37204",
    "phone": "615-455-2000",
    "latitude": 36.1627,
    "longitude": -86.7816,
    "website_url": "https://www.tesla.com/findus/location/store/nashville",
    "demo_drive_url": "https://www.tesla.com/drive?lat=36.1627&lng=-86.7816"
  },
  {
    "name": "Memphis",
    "address": "5000 Poplar Ave",
    "city": "Memphis",
    "state": "Tennessee",
    "zip_code": "38117",
    "phone": "901-455-2000",
    "latitude": 35.1495,
    "longitude": -89.8715,
    "website_url": "https://www.tesla.com/findus/location/store/memphis",
    "demo_drive_url": "https://www.tesla.com/drive?lat=35.1495&lng=-89.8715"
  },
  {
    "name": "Knoxville",
    "address": "11300 Parkside Dr",
    "city": "Knoxville",
    "state": "Tennessee",
    "zip_code": "37934",
    "phone": "865-455-2000",
    "latitude": 35.9606,
    "longitude": -84.2007,
    "website_url": "https://www.tesla.com/findus/location/store/knoxville",
    "demo_drive_url": "https://www.tesla.com/drive?lat=35.9606&lng=-84.2007"
  },
  {
    "name": "Chattanooga",
    "address": "2150 Gunbarrel Rd",
    "city": "Chattanooga",
    "state": "Tennessee",
    "zip_code": "37421",
    "phone": "423-455-2000",
    "latitude": 35.0456,
    "longitude": -85.3097,
    "website_url": "https://www.tesla.com/findus/location/store/chattanooga",
    "demo_drive_url": "https://www.tesla.com/drive?lat=35.0456&lng=-85.3097"
  },
  {
    "name": "Kansas City",
    "address": "4747 W 119th St",
    "city": "Overland Park",
    "state": "Missouri",
    "zip_code": "66213",
    "phone": "816-455-2000",
    "latitude": 38.9072,
    "longitude": -94.5318,
    "website_url": "https://www.tesla.com/findus/location/store/kansascity",
    "demo_drive_url": "https://www.tesla.com/drive?lat=38.9072&lng=-94.5318"
  },
  {
    "name": "St. Louis",
    "address": "1000 S 4th St",
    "city": "St. Louis",
    "state": "Missouri",
    "zip_code": "63102",
    "phone": "314-455-2000",
    "latitude": 38.627,
    "longitude": -90.1994,
    "website_url": "https://www.tesla.com/findus/location/store/st.louis",
    "demo_drive_url": "https://www.tesla.com/drive?lat=38.627&lng=-90.1994"
  },
  {
    "name": "Springfield",
    "address": "3300 S Glenstone Ave",
    "city": "Springfield",
    "state": "Missouri",
    "zip_code": "65804",
    "phone": "417-455-2000",
    "latitude": 37.2089,
    "longitude": -93.2923,
    "website_url": "https://www.tesla.com/findus/location/store/springfield",
    "demo_drive_url": "https://www.tesla.com/drive?lat=37.2089&lng=-93.2923"
  },
  {
    "name": "Columbia",
    "address": "1900 I-70 Dr SW",
    "city": "Columbia",
    "state": "Missouri",
    "zip_code": "65203",
    "phone": "573-455-2000",
    "latitude": 38.9517,
    "longitude": -92.3341,
    "website_url": "https://www.tesla.com/findus/location/store/columbia",
    "demo_drive_url": "https://www.tesla.com/drive?lat=38.9517&lng=-92.3341"
  },
  {
    "name": "Milwaukee",
    "address": "11111 W Parkland Ave",
    "city": "Milwaukee",
    "state": "Wisconsin",
    "zip_code": "53224",
    "phone": "414-455-2000",
    "latitude": 43.0389,
    "longitude": -88.0065,
    "website_url": "https://www.tesla.com/findus/location/store/milwaukee",
    "demo_drive_url": "https://www.tesla.com/drive?lat=43.0389&lng=-88.0065"
  },
  {
    "name": "Madison",
    "address": "2500 Rimrock Rd",
    "city": "Madison",
    "state": "Wisconsin",
    "zip_code": "53713",
    "phone": "608-455-2000",
    "latitude": 43.0731,
    "longitude": -89.4012,
    "website_url": "https://www.tesla.com/findus/location/store/madison",
    "demo_drive_url": "https://www.tesla.com/drive?lat=43.0731&lng=-89.4012"
  },
  {
    "name": "Green Bay",
    "address": "1661 W Mason St",
    "city": "Green Bay",
    "state": "Wisconsin",
    "zip_code": "54303",
    "phone": "920-455-2000",
    "latitude": 44.5192,
    "longitude": -88.0198,
    "website_url": "https://www.tesla.com/findus/location/store/greenbay",
    "demo_drive_url": "https://www.tesla.com/drive?lat=44.5192&lng=-88.0198"
  },
  {
    "name": "Indianapolis",
    "address": "1050 E 86th St",
    "city": "Indianapolis",
    "state": "Indiana",
    "zip_code": "46240",
    "phone": "317-455-2000",
    "latitude": 39.8561,
    "longitude": -86.1455,
    "website_url": "https://www.tesla.com/findus/location/store/indianapolis",
    "demo_drive_url": "https://www.tesla.com/drive?lat=39.8561&lng=-86.1455"
  },
  {
    "name": "Fort Wayne",
    "address": "4200 Coldwater Rd",
    "city": "Fort Wayne",
    "state": "Indiana",
    "zip_code": "46805",
    "phone": "260-455-2000",
    "latitude": 41.0793,
    "longitude": -85.1394,
    "website_url": "https://www.tesla.com/findus/location/store/fortwayne",
    "demo_drive_url": "https://www.tesla.com/drive?lat=41.0793&lng=-85.1394"
  },
  {
    "name": "South Bend",
    "address": "4400 S Main St",
    "city": "South Bend",
    "state": "Indiana",
    "zip_code": "46614",
    "phone": "574-455-2000",
    "latitude": 41.6764,
    "longitude": -86.252,
    "website_url": "https://www.tesla.com/findus/location/store/southbend",
    "demo_drive_url": "https://www.tesla.com/drive?lat=41.6764&lng=-86.252"
  },
  {
    "name": "Louisville",
    "address": "4800 Outer Loop",
    "city": "Louisville",
    "state": "Kentucky",
    "zip_code": "40219",
    "phone": "502-455-2000",
    "latitude": 38.2527,
    "longitude": -85.7585,
    "website_url": "https://www.tesla.com/findus/location/store/louisville",
    "demo_drive_url": "https://www.tesla.com/drive?lat=38.2527&lng=-85.7585"
  },
  {
    "name": "Lexington",
    "address": "2300 Buena Vista Rd",
    "city": "Lexington",
    "state": "Kentucky",
    "zip_code": "40505",
    "phone": "859-455-2000",
    "latitude": 38.0406,
    "longitude": -84.5037,
    "website_url": "https://www.tesla.com/findus/location/store/lexington",
    "demo_drive_url": "https://www.tesla.com/drive?lat=38.0406&lng=-84.5037"
  },
  {
    "name": "Birmingham",
    "address": "2800 7th Ave S",
    "city": "Birmingham",
    "state": "Alabama",
    "zip_code": "35233",
    "phone": "205-455-2000",
    "latitude": 33.5186,
    "longitude": -86.8104,
    "website_url": "https://www.tesla.com/findus/location/store/birmingham",
    "demo_drive_url": "https://www.tesla.com/drive?lat=33.5186&lng=-86.8104"
  },
  {
    "name": "Huntsville",
    "address": "2500 Memorial Pkwy SW",
    "city": "Huntsville",
    "state": "Alabama",
    "zip_code": "35801",
    "phone": "256-455-2000",
    "latitude": 34.7304,
    "longitude": -86.5861,
    "website_url": "https://www.tesla.com/findus/location/store/huntsville",
    "demo_drive_url": "https://www.tesla.com/drive?lat=34.7304&lng=-86.5861"
  },
  {
    "name": "Charleston",
    "address": "1800 Sam Rittenberg Blvd",
    "city": "Charleston",
    "state": "South Carolina",
    "zip_code": "29407",
    "phone": "843-455-2000",
    "latitude": 32.7765,
    "longitude": -80.0109,
    "website_url": "https://www.tesla.com/findus/location/store/charleston",
    "demo_drive_url": "https://www.tesla.com/drive?lat=32.7765&lng=-80.0109"
  },
  {
    "name": "Greenville",
    "address": "1125 Woodruff Rd",
    "city": "Greenville",
    "state": "South Carolina",
    "zip_code": "29607",
    "phone": "864-455-2000",
    "latitude": 34.8526,
    "longitude": -82.395,
    "website_url": "https://www.tesla.com/findus/location/store/greenville",
    "demo_drive_url": "https://www.tesla.com/drive?lat=34.8526&lng=-82.395"
  },
  {
    "name": "New Orleans",
    "address": "3500 Veterans Memorial Blvd",
    "city": "Metairie",
    "state": "Louisiana",
    "zip_code": "70002",
    "phone": "504-455-2000",
    "latitude": 30.0074,
    "longitude": -90.1798,
    "website_url": "https://www.tesla.com/findus/location/store/neworleans",
    "demo_drive_url": "https://www.tesla.com/drive?lat=30.0074&lng=-90.1798"
  },
  {
    "name": "Baton Rouge",
    "address": "10000 Perkins Rd",
    "city": "Baton Rouge",
    "state": "Louisiana",
    "zip_code": "70810",
    "phone": "225-455-2000",
    "latitude": 30.4515,
    "longitude": -91.1871,
    "website_url": "https://www.tesla.com/findus/location/store/batonrouge",
    "demo_drive_url": "https://www.tesla.com/drive?lat=30.4515&lng=-91.1871"
  },
  {
    "name": "Des Moines",
    "address": "8800 University Ave",
    "city": "West Des Moines",
    "state": "Iowa",
    "zip_code": "50266",
    "phone": "515-455-2000",
    "latitude": 41.5868,
    "longitude": -93.625,
    "website_url": "https://www.tesla.com/findus/location/store/desmoines",
    "demo_drive_url": "https://www.tesla.com/drive?lat=41.5868&lng=-93.625"
  },
  {
    "name": "Kansas City",
    "address": "4747 W 119th St",
    "city": "Overland Park",
    "state": "Kansas",
    "zip_code": "66213",
    "phone": "913-455-2000",
    "latitude": 38.9072,
    "longitude": -94.5318,
    "website_url": "https://www.tesla.com/findus/location/store/kansascity",
    "demo_drive_url": "https://www.tesla.com/drive?lat=38.9072&lng=-94.5318"
  }
]